<?xml version='1.0' encoding='UTF-8'?>
<kml xmlns='http://www.opengis.net/kml/2.2'>
	<Document>
		<name>Jeddah: interested locations</name>
		<description><![CDATA[]]></description>
		<Folder>
			<name>Untitled layer</name>
			<Placemark>
				<styleUrl>#icon-73</styleUrl>
				<name>IMC - International Medical Center, Jeddah</name>
				<ExtendedData>
				</ExtendedData>
				<description><![CDATA[International Medical Center<br>PO Box: 2172<br>Jeddah: 21451<br><br>Phone: +966 2 650 9000<br>Fax: +966 2 653 5045<br>E-mail: imcinfo@imc.med.sa]]></description>
				<Point>
					<coordinates>39.174286,21.513458,0.0</coordinates>
				</Point>
			</Placemark>
			<Placemark>
				<styleUrl>#icon-37</styleUrl>
				<name>Sewing Machine Shops</name>
				<ExtendedData>
				</ExtendedData>
				<Point>
					<coordinates>39.186602,21.477751000000005,0.0</coordinates>
				</Point>
			</Placemark>
			<Placemark>
				<styleUrl>#icon-37</styleUrl>
				<name>HindaWeyah (Ribbon Souk)</name>
				<ExtendedData>
				</ExtendedData>
				<description><![CDATA[Thanks, Linda!]]></description>
				<Point>
					<coordinates>39.232178000000005,21.442843,0.0</coordinates>
				</Point>
			</Placemark>
			<Placemark>
				<styleUrl>#icon-131</styleUrl>
				<name>IKEA</name>
				<ExtendedData>
				</ExtendedData>
				<description><![CDATA[P.O.Box 8054, Jeddah 21482 – Saudi Arabia<br>Phone: +966 2 6633000<br>Saturday to Thursday: 10:00 – 24:00<br>Friday: 16:00 – 24:00<br>Special opening hours in Ramadan and EID. 	<br><br>E-mail: Infojed@ikea.com.sa]]></description>
				<Point>
					<coordinates>39.183769,21.555444,0.0</coordinates>
				</Point>
			</Placemark>
			<Placemark>
				<styleUrl>#icon-37</styleUrl>
				<name>SACO World Hardware</name>
				<ExtendedData>
				</ExtendedData>
				<description><![CDATA[The Really Big SACO Hardware store..]]></description>
				<Point>
					<coordinates>39.133301,21.670032,0.0</coordinates>
				</Point>
			</Placemark>
			<Placemark>
				<styleUrl>#icon-37</styleUrl>
				<name>SACO</name>
				<ExtendedData>
				</ExtendedData>
				<description><![CDATA[Hardware Store<br>http://www.saco-ksa.com/]]></description>
				<Point>
					<coordinates>39.205528,21.562988,0.0</coordinates>
				</Point>
			</Placemark>
			<Placemark>
				<styleUrl>#icon-37</styleUrl>
				<name>Toy's R Us</name>
				<ExtendedData>
				</ExtendedData>
				<description><![CDATA[Store is in the Roshan Mall.  On the Mosaic globe roundabout.]]></description>
				<Point>
					<coordinates>39.108673,21.665236,0.0</coordinates>
				</Point>
			</Placemark>
			<Placemark>
				<styleUrl>#icon-170</styleUrl>
				<name>Hyper Panda</name>
				<ExtendedData>
				</ExtendedData>
				<description><![CDATA[Hypermarket. Large grocery store with dry goods also. In the Roshan Mall]]></description>
				<Point>
					<coordinates>39.109097,21.665246,0.0</coordinates>
				</Point>
			</Placemark>
			<Placemark>
				<styleUrl>#icon-170</styleUrl>
				<name>Danube</name>
				<ExtendedData>
				</ExtendedData>
				<description><![CDATA[Hypermarket. Large grocery store with dry goods also.  In the Red Sea Mall.]]></description>
				<Point>
					<coordinates>39.125748,21.74802,0.0</coordinates>
				</Point>
			</Placemark>
			<Placemark>
				<styleUrl>#icon-131</styleUrl>
				<name>Jeddah International Markets</name>
				<ExtendedData>
				</ExtendedData>
				<Point>
					<coordinates>39.170551,21.558317,0.0</coordinates>
				</Point>
			</Placemark>
			<Placemark>
				<styleUrl>#icon-37</styleUrl>
				<name>Al-Muhaidib Hardware</name>
				<ExtendedData>
				</ExtendedData>
				<description><![CDATA[I found door chains here. Door lock, handles etc.]]></description>
				<Point>
					<coordinates>39.178619,21.557839,0.0</coordinates>
				</Point>
			</Placemark>
			<Placemark>
				<styleUrl>#icon-37</styleUrl>
				<name>Computer Stores</name>
				<ExtendedData>
				</ExtendedData>
				<Point>
					<coordinates>39.153643,21.61235,0.0</coordinates>
				</Point>
			</Placemark>
			<Placemark>
				<styleUrl>#icon-37</styleUrl>
				<name>Emax Store 1 (electronics)</name>
				<ExtendedData>
				</ExtendedData>
				<description><![CDATA[Sitteen Street, Bawadi,<br>Jeddah,<br>Tel: +966 2 6977519, 6977517]]></description>
				<Point>
					<coordinates>39.176861,21.590605,0.0</coordinates>
				</Point>
			</Placemark>
			<Placemark>
				<styleUrl>#icon-37</styleUrl>
				<name>Emax store 2 (electronics)</name>
				<ExtendedData>
				</ExtendedData>
				<description><![CDATA[Centrepoint Dome <br>Dome - Amir Sultan Street,<br>Jeddah<br>Tel: +966 2 6394492]]></description>
				<Point>
					<coordinates>39.14110900000001,21.606686,0.0</coordinates>
				</Point>
			</Placemark>
			<Placemark>
				<styleUrl>#icon-37</styleUrl>
				<name>Computer Shops</name>
				<ExtendedData>
				</ExtendedData>
				<description><![CDATA[Farther Down this street: Khalid Al Waleed St.]]></description>
				<Point>
					<coordinates>39.185143,21.529418,0.0</coordinates>
				</Point>
			</Placemark>
			<Placemark>
				<styleUrl>#icon-170</styleUrl>
				<name>Hyper Panda</name>
				<ExtendedData>
				</ExtendedData>
				<description><![CDATA[Hyper Market. Large grocery st]]></description>
				<Point>
					<coordinates>39.204132,21.563267,0.0</coordinates>
				</Point>
			</Placemark>
			<Placemark>
				<styleUrl>#icon-37</styleUrl>
				<name>Extra</name>
				<ExtendedData>
				</ExtendedData>
				<description><![CDATA[Electronics and home appliances store]]></description>
				<Point>
					<coordinates>39.143234,21.597956,0.0</coordinates>
				</Point>
			</Placemark>
			<Placemark>
				<styleUrl>#icon-85</styleUrl>
				<name>SITACO</name>
				<ExtendedData>
				</ExtendedData>
				<Point>
					<coordinates>39.164886,21.577954,0.0</coordinates>
				</Point>
			</Placemark>
			<Placemark>
				<styleUrl>#icon-125</styleUrl>
				<name>APPLEBEE's</name>
				<ExtendedData>
				</ExtendedData>
				<description><![CDATA[Restaurant]]></description>
				<Point>
					<coordinates>39.131584,21.646579,0.0</coordinates>
				</Point>
			</Placemark>
			<Placemark>
				<styleUrl>#icon-37</styleUrl>
				<name>Toyota Car Dealer</name>
				<ExtendedData>
				</ExtendedData>
				<Point>
					<coordinates>39.20396,21.633814,0.0</coordinates>
				</Point>
			</Placemark>
			<Placemark>
				<styleUrl>#icon-139</styleUrl>
				<name>Albilad Beach</name>
				<ExtendedData>
				</ExtendedData>
				<description><![CDATA[GPS: +21° 42' 29.22", +39° 5' 9.90"]]></description>
				<Point>
					<coordinates>39.14772,21.69348,0.0</coordinates>
				</Point>
			</Placemark>
			<Placemark>
				<styleUrl>#icon-125</styleUrl>
				<name>Fish restaurant</name>
				<ExtendedData>
				</ExtendedData>
				<Point>
					<coordinates>39.103958,21.718073,0.0</coordinates>
				</Point>
			</Placemark>
			<Placemark>
				<styleUrl>#icon-35</styleUrl>
				<name>Starbucks</name>
				<ExtendedData>
				</ExtendedData>
				<Point>
					<coordinates>39.145294,21.598234,0.0</coordinates>
				</Point>
			</Placemark>
			<Placemark>
				<styleUrl>#icon-41</styleUrl>
				<name>SABB Branch</name>
				<ExtendedData>
				</ExtendedData>
				<Point>
					<coordinates>39.1427,21.571289000000004,0.0</coordinates>
				</Point>
			</Placemark>
			<Placemark>
				<styleUrl>#icon-125</styleUrl>
				<name>Good Seafood Restaurant</name>
				<ExtendedData>
				</ExtendedData>
				<Point>
					<coordinates>39.10574,21.588215,0.0</coordinates>
				</Point>
			</Placemark>
			<Placemark>
				<styleUrl>#icon-35</styleUrl>
				<name>Starbucks</name>
				<ExtendedData>
				</ExtendedData>
				<description><![CDATA[Inside Centrepoint Mall, Lower Level.]]></description>
				<Point>
					<coordinates>39.14138,21.606575,0.0</coordinates>
				</Point>
			</Placemark>
			<Placemark>
				<styleUrl>#icon-105</styleUrl>
				<name>Check Point</name>
				<ExtendedData>
				</ExtendedData>
				<Point>
					<coordinates>39.120621,21.798895,0.0</coordinates>
				</Point>
			</Placemark>
			<Placemark>
				<styleUrl>#icon-139</styleUrl>
				<name>Red Sea Resort (Sheraton)</name>
				<ExtendedData>
				</ExtendedData>
				<Point>
					<coordinates>39.072361,21.735115,0.0</coordinates>
				</Point>
			</Placemark>
			<Placemark>
				<styleUrl>#icon-37</styleUrl>
				<name>Jarir Bookstore</name>
				<ExtendedData>
				</ExtendedData>
				<description><![CDATA[on Sar[iy] Street.<br><br>Showroom Timings: Sat-Thu 9am-2pm, 4.30pm-11pm; Fri 4.30pm-11pm<br>Tel. No. +966 2 682-7666, Fax No.+966 2 698-1120]]></description>
				<Point>
					<coordinates>39.14654,21.57512,0.0</coordinates>
				</Point>
			</Placemark>
			<Placemark>
				<styleUrl>#icon-37</styleUrl>
				<name>Jarir Bookstore</name>
				<ExtendedData>
				</ExtendedData>
				<description><![CDATA[In "JARIR MALL"]]></description>
				<Point>
					<coordinates>39.133301,21.651046,0.0</coordinates>
				</Point>
			</Placemark>
			<Placemark>
				<styleUrl>#icon-85</styleUrl>
				<name>SACO: HARDWARE</name>
				<ExtendedData>
				</ExtendedData>
				<Point>
					<coordinates>39.1651,21.518284,0.0</coordinates>
				</Point>
			</Placemark>
			<Placemark>
				<styleUrl>#icon-131</styleUrl>
				<name>Mega Mall</name>
				<ExtendedData>
				</ExtendedData>
				<Point>
					<coordinates>41.044922,20.735566000000002,0.0</coordinates>
				</Point>
			</Placemark>
			<Placemark>
				<styleUrl>#icon-85</styleUrl>
				<name>Electrical Shops along this street</name>
				<ExtendedData>
				</ExtendedData>
				<description><![CDATA[(east - west)]]></description>
				<Point>
					<coordinates>39.17894,21.550774000000004,0.0</coordinates>
				</Point>
			</Placemark>
			<Placemark>
				<styleUrl>#icon-37</styleUrl>
				<name>I-Zone</name>
				<ExtendedData>
				</ExtendedData>
				<description><![CDATA[Apple shop.]]></description>
				<Point>
					<coordinates>40.177002,21.294493,0.0</coordinates>
				</Point>
			</Placemark>
			<Placemark>
				<styleUrl>#icon-131</styleUrl>
				<name>Hera International Mall</name>
				<ExtendedData>
				</ExtendedData>
				<Point>
					<coordinates>39.152954,21.615622,0.0</coordinates>
				</Point>
			</Placemark>
			<Placemark>
				<styleUrl>#icon-37</styleUrl>
				<name>COMPUTER Shops: MANY (N)</name>
				<ExtendedData>
				</ExtendedData>
				<description><![CDATA[This is about the North end of the Computer Shops 'Souk'.<br>DETAILS? See: http://redseainfo.info]]></description>
				<Point>
					<coordinates>39.185673,21.52029,0.0</coordinates>
				</Point>
			</Placemark>
			<Placemark>
				<styleUrl>#icon-37</styleUrl>
				<name>Computer Shops: MANY (S)</name>
				<ExtendedData>
				</ExtendedData>
				<description><![CDATA[This is about the South end of the Computer Stores strip. DETAILS? See: http://redseainfo.info]]></description>
				<Point>
					<coordinates>39.18620700000001,21.517082,0.0</coordinates>
				</Point>
			</Placemark>
			<Placemark>
				<styleUrl>#icon-37</styleUrl>
				<name>Electronic shops location Jeddah 22237, Saudi Arabia</name>
				<ExtendedData>
				</ExtendedData>
				<description><![CDATA[+21° 29' 12.33", +39° 11' 50.13"]]></description>
				<Point>
					<coordinates>39.197258000000005,21.486757,0.0</coordinates>
				</Point>
			</Placemark>
			<Placemark>
				<styleUrl>#icon-37</styleUrl>
				<name>computer supplies,Baroom centre,6733 Fayd Ar Rida, Jeddah 23213</name>
				<ExtendedData>
				</ExtendedData>
				<description><![CDATA[+21° 30' 46.30", +39° 10' 21.21"]]></description>
				<Point>
					<coordinates>39.16523,21.547621,0.0</coordinates>
				</Point>
			</Placemark>
			<Placemark>
				<styleUrl>#icon-37</styleUrl>
				<name>eMax (or ???)</name>
				<ExtendedData>
				</ExtendedData>
				<description><![CDATA[Consumer electronics, media. etc.]]></description>
				<Point>
					<coordinates>39.175873,21.595193,0.0</coordinates>
				</Point>
			</Placemark>
			<Placemark>
				<styleUrl>#icon-131</styleUrl>
				<name>Mall of Arabia</name>
				<ExtendedData>
				</ExtendedData>
				<Point>
					<coordinates>39.153728,21.613866,0.0</coordinates>
				</Point>
			</Placemark>
			<Placemark>
				<styleUrl>#icon-131</styleUrl>
				<name>Red Sea Mall</name>
				<ExtendedData>
				</ExtendedData>
				<Point>
					<coordinates>39.109955,21.626793,0.0</coordinates>
				</Point>
			</Placemark>
			<Placemark>
				<styleUrl>#icon-69</styleUrl>
				<name>KAUST</name>
				<ExtendedData>
				</ExtendedData>
				<description><![CDATA[King Abdullah University of Science Technology]]></description>
				<Point>
					<coordinates>39.105923,22.309109,0.0</coordinates>
				</Point>
			</Placemark>
			<Placemark>
				<styleUrl>#icon-105</styleUrl>
				<name>Check Point</name>
				<ExtendedData>
				</ExtendedData>
				<Point>
					<coordinates>40.275879,22.329752,0.0</coordinates>
				</Point>
			</Placemark>
			<Placemark>
				<styleUrl>#icon-139</styleUrl>
				<name>Palm Beach</name>
				<ExtendedData>
				</ExtendedData>
				<description><![CDATA[A private beach and accommodation facility.<br>Parking is outside (road side car park).<br>Yellow brick fence (wall) - Palm Beach written on this.<br>Entrance fee is < 100 SR.]]></description>
				<Point>
					<coordinates>39.075157,21.728962,0.0</coordinates>
				</Point>
			</Placemark>
			<Placemark>
				<styleUrl>#icon-139</styleUrl>
				<name>La Plage Beach</name>
				<ExtendedData>
				</ExtendedData>
				<description><![CDATA[Look for green gate door with Saudi National Symbol of swords and palms.<br><br> <br>Nice beach; Nice diving; Nice food.<br><br>Dive shop is under stocked, so be there early if you need rental equipment.<br><br>They'll take the air tanks out to the setup area, and bring the empties back - bonus points.]]></description>
				<Point>
					<coordinates>39.078369,21.682953,0.0</coordinates>
				</Point>
			</Placemark>
			<Placemark>
				<styleUrl>#icon-139</styleUrl>
				<name>Dream Beach</name>
				<ExtendedData>
				</ExtendedData>
				<description><![CDATA[Diving is ok; Dive shop is good (nice rental equipment); The setup area was way too crowded; The setup area was muddy too - not nice.]]></description>
				<Point>
					<coordinates>39.05365,21.759181,0.0</coordinates>
				</Point>
			</Placemark>
			<Placemark>
				<styleUrl>#icon-49</styleUrl>
				<name>Desert Sea Divers</name>
				<ExtendedData>
				</ExtendedData>
				<description><![CDATA[The Desert Sea Divers shop and marina. Depart here for boat trips.<br>http://www.desertseadivers.com]]></description>
				<Point>
					<coordinates>39.107037,21.730321,0.0</coordinates>
				</Point>
			</Placemark>
			<Placemark>
				<styleUrl>#icon-49</styleUrl>
				<name>Dream Divers</name>
				<ExtendedData>
				</ExtendedData>
				<description><![CDATA[Depart here for boat trips.]]></description>
				<Point>
					<coordinates>39.123058,21.736643,0.0</coordinates>
				</Point>
			</Placemark>
			<Placemark>
				<styleUrl>#icon-81</styleUrl>
				<name>Al Lith Resort</name>
				<ExtendedData>
				</ExtendedData>
				<Point>
					<coordinates>40.246845,20.15801,0.0</coordinates>
				</Point>
			</Placemark>
			<Placemark>
				<styleUrl>#icon-105</styleUrl>
				<name>Checkpoint</name>
				<ExtendedData>
				</ExtendedData>
				<Point>
					<coordinates>39.255779,21.408072,0.0</coordinates>
				</Point>
			</Placemark>
			<Placemark>
				<styleUrl>#icon-103</styleUrl>
				<name>Riyadh Airport</name>
				<ExtendedData>
				</ExtendedData>
				<Point>
					<coordinates>46.703632,24.958281,0.0</coordinates>
				</Point>
			</Placemark>
			<Placemark>
				<styleUrl>#icon-139</styleUrl>
				<name>KAUST Beach</name>
				<ExtendedData>
				</ExtendedData>
				<Point>
					<coordinates>39.090092,22.292665,0.0</coordinates>
				</Point>
			</Placemark>
			<Placemark>
				<styleUrl>#icon-139</styleUrl>
				<name>Intercontinental Beach</name>
				<ExtendedData>
				</ExtendedData>
				<description><![CDATA[[TBC]<br><br>Desert Sea Divers]]></description>
				<Point>
					<coordinates>39.082403,21.71868,0.0</coordinates>
				</Point>
			</Placemark>
			<Placemark>
				<styleUrl>#icon-81</styleUrl>
				<name>Park Hyatt Hotel</name>
				<ExtendedData>
				</ExtendedData>
				<Point>
					<coordinates>39.154673,21.514566,0.0</coordinates>
				</Point>
			</Placemark>
			<Placemark>
				<styleUrl>#icon-125</styleUrl>
				<name>Good Seafood Restaurant</name>
				<ExtendedData>
				</ExtendedData>
				<Point>
					<coordinates>39.10574,21.588215,0.0</coordinates>
				</Point>
			</Placemark>
			<Placemark>
				<styleUrl>#icon-41</styleUrl>
				<name>SABB Branch</name>
				<ExtendedData>
				</ExtendedData>
				<Point>
					<coordinates>39.142828,21.571169,0.0</coordinates>
				</Point>
			</Placemark>
			<Placemark>
				<styleUrl>#icon-103</styleUrl>
				<name>JED - North Terminal</name>
				<ExtendedData>
				</ExtendedData>
				<description><![CDATA[All airlines other than Saudi Airlines (Saudia)]]></description>
				<Point>
					<coordinates>39.143665,21.687698,0.0</coordinates>
				</Point>
			</Placemark>
			<Placemark>
				<styleUrl>#icon-103</styleUrl>
				<name>JED - South Terminal</name>
				<ExtendedData>
				</ExtendedData>
				<description><![CDATA[Saudi Airlines (Saudia) only]]></description>
				<Point>
					<coordinates>38.830147,21.698903,0.0</coordinates>
				</Point>
			</Placemark>
			<Placemark>
				<styleUrl>#icon-170</styleUrl>
				<name>Danube</name>
				<ExtendedData>
				</ExtendedData>
				<description><![CDATA[Hypermarket. Large grocery store with dry goods also.  In the Red Sea Mall.]]></description>
				<Point>
					<coordinates>39.107895,21.630622000000002,0.0</coordinates>
				</Point>
			</Placemark>
			<Placemark>
				<styleUrl>#icon-37</styleUrl>
				<name>Al-Muhaidib Hardware</name>
				<ExtendedData>
				</ExtendedData>
				<description><![CDATA[I found door chains here. Door lock, handles etc.]]></description>
				<Point>
					<coordinates>39.178661,21.55748,0.0</coordinates>
				</Point>
			</Placemark>
			<Placemark>
				<styleUrl>#icon-37</styleUrl>
				<name>Emax Store 1 (electronics)</name>
				<ExtendedData>
				</ExtendedData>
				<description><![CDATA[Sitteen Street, Bawadi,<br>Jeddah,<br>Tel: +966 2 6977519, 6977517]]></description>
				<Point>
					<coordinates>39.177246,21.591043,0.0</coordinates>
				</Point>
			</Placemark>
			<Placemark>
				<styleUrl>#icon-37</styleUrl>
				<name>Emax store 2 (electronics)</name>
				<ExtendedData>
				</ExtendedData>
				<description><![CDATA[Centrepoint Dome <br>Dome - Amir Sultan Street,<br>Jeddah<br>Tel: +966 2 6394492]]></description>
				<Point>
					<coordinates>39.14110900000001,21.606686,0.0</coordinates>
				</Point>
			</Placemark>
			<Placemark>
				<styleUrl>#icon-37</styleUrl>
				<name>Lingo Computer Store</name>
				<ExtendedData>
				</ExtendedData>
				<description><![CDATA[Sells Apple products]]></description>
				<Point>
					<coordinates>39.10973,21.665181,0.0</coordinates>
				</Point>
			</Placemark>
			<Placemark>
				<styleUrl>#icon-170</styleUrl>
				<name>Hyper Panda</name>
				<ExtendedData>
				</ExtendedData>
				<description><![CDATA[Hyper Market. Large grocery st]]></description>
				<Point>
					<coordinates>39.204132,21.563267,0.0</coordinates>
				</Point>
			</Placemark>
			<Placemark>
				<styleUrl>#icon-139</styleUrl>
				<name>Silver Sands Beach Club</name>
				<ExtendedData>
				</ExtendedData>
				<description><![CDATA[GPS: +21° 46' 24.96", +39° 3' 4.32"<br>Phone: 02 656 2632]]></description>
				<Point>
					<coordinates>39.051201,21.7736,0.0</coordinates>
				</Point>
			</Placemark>
			<Placemark>
				<styleUrl>#icon-125</styleUrl>
				<name>Fish restaurant</name>
				<ExtendedData>
				</ExtendedData>
				<Point>
					<coordinates>39.103958,21.718073,0.0</coordinates>
				</Point>
			</Placemark>
			<Placemark>
				<styleUrl>#icon-37</styleUrl>
				<name>Extra</name>
				<ExtendedData>
				</ExtendedData>
				<description><![CDATA[Electronics and home appliances store]]></description>
				<Point>
					<coordinates>39.143234,21.597956,0.0</coordinates>
				</Point>
			</Placemark>
			<Placemark>
				<styleUrl>#icon-35</styleUrl>
				<name>Starbucks</name>
				<ExtendedData>
				</ExtendedData>
				<Point>
					<coordinates>39.145294,21.598234,0.0</coordinates>
				</Point>
			</Placemark>
			<Placemark>
				<styleUrl>#icon-35</styleUrl>
				<name>Starbucks</name>
				<ExtendedData>
				</ExtendedData>
				<description><![CDATA[Inside Centrepoint Mall, Lower Level.]]></description>
				<Point>
					<coordinates>39.143257,21.611871,0.0</coordinates>
				</Point>
			</Placemark>
			<Placemark>
				<styleUrl>#icon-37</styleUrl>
				<name>Toyota Car Dealer</name>
				<ExtendedData>
				</ExtendedData>
				<Point>
					<coordinates>39.20396,21.633814,0.0</coordinates>
				</Point>
			</Placemark>
			<Placemark>
				<styleUrl>#icon-39</styleUrl>
				<name>Wheels</name>
				<ExtendedData>
				</ExtendedData>
				<description><![CDATA[Sari str, <br>Carries TREK - Sam Abalos (WHEELS) Tel:026981302 Cell:0508691557 (open 09:30-12:00 and 16:30-00:00 from a phone call)<br><br>Note that the roundabout the map shows West is here has been replaced with an overpass along Sari Street. To get to Wheels you need to approach from East and NOT go on the overpass.]]></description>
				<Point>
					<coordinates>39.145296,21.575739,0.0</coordinates>
				</Point>
			</Placemark>
			<Placemark>
				<styleUrl>#icon-81</styleUrl>
				<name>Four Seasons</name>
				<ExtendedData>
				</ExtendedData>
				<Point>
					<coordinates>46.955566,24.739348,0.0</coordinates>
				</Point>
			</Placemark>
			<Placemark>
				<styleUrl>#icon-81</styleUrl>
				<name>Habitat hotel</name>
				<ExtendedData>
				</ExtendedData>
				<Point>
					<coordinates>39.156346,21.606924,0.0</coordinates>
				</Point>
			</Placemark>
			<Placemark>
				<styleUrl>#icon-81</styleUrl>
				<name>Hilton Hotel</name>
				<ExtendedData>
				</ExtendedData>
				<Point>
					<coordinates>39.107208,21.60445,0.0</coordinates>
				</Point>
			</Placemark>
			<Placemark>
				<styleUrl>#icon-81</styleUrl>
				<name>Holiday Inn - Intercontinental</name>
				<ExtendedData>
				</ExtendedData>
				<Point>
					<coordinates>39.156164,21.515904,0.0</coordinates>
				</Point>
			</Placemark>
			<Placemark>
				<styleUrl>#icon-81</styleUrl>
				<name>Holiday Inn - Crowne Plaza (nearby)</name>
				<ExtendedData>
				</ExtendedData>
				<Point>
					<coordinates>39.156679,21.514896,0.0</coordinates>
				</Point>
			</Placemark>
			<Placemark>
				<styleUrl>#icon-81</styleUrl>
				<name>Holiday Inn Jeddah Al Salam</name>
				<ExtendedData>
				</ExtendedData>
				<Point>
					<coordinates>39.207976,21.484392,0.0</coordinates>
				</Point>
			</Placemark>
			<Placemark>
				<styleUrl>#icon-81</styleUrl>
				<name>Le Meridien</name>
				<ExtendedData>
				</ExtendedData>
				<Point>
					<coordinates>39.17218,21.558962000000005,0.0</coordinates>
				</Point>
			</Placemark>
			<Placemark>
				<styleUrl>#icon-81</styleUrl>
				<name>Radisson Blu Royal Suites</name>
				<ExtendedData>
				</ExtendedData>
				<Point>
					<coordinates>39.189606,21.549537,0.0</coordinates>
				</Point>
			</Placemark>
			<Placemark>
				<styleUrl>#icon-81</styleUrl>
				<name>Sultan</name>
				<ExtendedData>
				</ExtendedData>
				<Point>
					<coordinates>39.14209,21.60833,0.0</coordinates>
				</Point>
			</Placemark>
			<Placemark>
				<styleUrl>#icon-81</styleUrl>
				<name>Avail Hotel and Suite</name>
				<ExtendedData>
				</ExtendedData>
				<Point>
					<coordinates>39.155102,21.612191,0.0</coordinates>
				</Point>
			</Placemark>
			<Placemark>
				<styleUrl>#icon-81</styleUrl>
				<name>Sheraton Towers</name>
				<ExtendedData>
				</ExtendedData>
				<Point>
					<coordinates>46.918488,24.867748,0.0</coordinates>
				</Point>
			</Placemark>
			<Placemark>
				<styleUrl>#icon-81</styleUrl>
				<name>Marriott Jeddah</name>
				<ExtendedData>
				</ExtendedData>
				<Point>
					<coordinates>39.195236,21.531874,0.0</coordinates>
				</Point>
			</Placemark>
			<Placemark>
				<styleUrl>#icon-85</styleUrl>
				<name>RADIO SHACK</name>
				<ExtendedData>
				</ExtendedData>
				<Point>
					<coordinates>39.16935,21.567417,0.0</coordinates>
				</Point>
			</Placemark>
			<Placemark>
				<styleUrl>#icon-131</styleUrl>
				<name>THALIA MALL</name>
				<ExtendedData>
				</ExtendedData>
				<Point>
					<coordinates>39.148834,21.549059,0.0</coordinates>
				</Point>
			</Placemark>
			<Placemark>
				<styleUrl>#icon-170</styleUrl>
				<name>DANUBE SUPERMARKET</name>
				<ExtendedData>
				</ExtendedData>
				<Point>
					<coordinates>39.16317,21.549156,0.0</coordinates>
				</Point>
			</Placemark>
			<Placemark>
				<styleUrl>#icon-149</styleUrl>
				<name>DIVE SHOPS</name>
				<ExtendedData>
				</ExtendedData>
				<description><![CDATA[2 in Danube Building, One across parking lot.]]></description>
				<Point>
					<coordinates>39.134674,21.657428,0.0</coordinates>
				</Point>
			</Placemark>
			<Placemark>
				<styleUrl>#icon-16</styleUrl>
				<name>EXIT for SULTAN ST.</name>
				<ExtendedData>
				</ExtendedData>
				<description><![CDATA[To Jarir Mall, etc.]]></description>
				<Point>
					<coordinates>39.125233,21.67051,0.0</coordinates>
				</Point>
			</Placemark>
			<Placemark>
				<styleUrl>#icon-49</styleUrl>
				<name>BOAT DEALER</name>
				<ExtendedData>
				</ExtendedData>
				<Point>
					<coordinates>39.120686,21.607084,0.0</coordinates>
				</Point>
			</Placemark>
			<Placemark>
				<styleUrl>#icon-16</styleUrl>
				<name>EXIT BACK FROM MALL OF ARABIA</name>
				<ExtendedData>
				</ExtendedData>
				<description><![CDATA[This is the U-Turn to get back on Madina Rd to KAUST from Mall of Arabia...]]></description>
				<Point>
					<coordinates>39.147549,21.650887,0.0</coordinates>
				</Point>
			</Placemark>
			<Placemark>
				<styleUrl>#icon-16</styleUrl>
				<name>THUWAL EXIT</name>
				<ExtendedData>
				</ExtendedData>
				<Point>
					<coordinates>39.144287,22.167058,0.0</coordinates>
				</Point>
			</Placemark>
			<Placemark>
				<styleUrl>#icon-16</styleUrl>
				<name>KAUST EXIT: MAIN GATE</name>
				<ExtendedData>
				</ExtendedData>
				<Point>
					<coordinates>39.148041000000006,22.307402,0.0</coordinates>
				</Point>
			</Placemark>
			<Placemark>
				<styleUrl>#icon-105</styleUrl>
				<name>KAUST-VENDOR GATE</name>
				<ExtendedData>
				</ExtendedData>
				<Point>
					<coordinates>39.210205,22.324671,0.0</coordinates>
				</Point>
			</Placemark>
			<Placemark>
				<styleUrl>#icon-105</styleUrl>
				<name>KAUST-THUWAL GATE</name>
				<ExtendedData>
				</ExtendedData>
				<Point>
					<coordinates>39.104286,22.298656,0.0</coordinates>
				</Point>
			</Placemark>
			<Placemark>
				<styleUrl>#icon-37</styleUrl>
				<name>Small Animal Souq</name>
				<ExtendedData>
				</ExtendedData>
				<description><![CDATA[Purchase goats, sheep, rabbits, pigeons, birds, and the odd exotic animals.  You can buy rabbit feed (25 kilo sacks) straw, hay, and other items needed to care for small animals.  Open in the evenings.]]></description>
				<Point>
					<coordinates>39.236126,21.325358000000005,0.0</coordinates>
				</Point>
			</Placemark>
			<Placemark>
				<styleUrl>#icon-37</styleUrl>
				<name>Petromin Souq</name>
				<ExtendedData>
				</ExtendedData>
				<description><![CDATA[Petromin Souq, Large outdoor market selling everything under the sun.  <br><br>The Petromin Souq is not as far south as the Junk Souq, but don't go in a local taxi unless you are absolutely certain of its location.  It is a vast collection of units in open warehouses with textiles, furniture, luggage, household goods and clothing. Textiles for curtains and upholstery are an absolute bargain at truly incredible prices - SR10-15 per metre that would cost SR100+ back home.   Set aside a good couple of hours unless you know exactly what you are going for and where to find it.  The market doesn't open until 11am and then is open all day (apart from prayer times) until around 10pm. source : http://www.geocities.ws/jeddahinfo/thesouqs.htm]]></description>
				<Point>
					<coordinates>39.21042,21.412722,0.0</coordinates>
				</Point>
			</Placemark>
			<Placemark>
				<styleUrl>#icon-125</styleUrl>
				<name>Sahareej Aden Yemini Resturaunt</name>
				<ExtendedData>
				</ExtendedData>
				<description><![CDATA[The best Yemeni restaurant I have been to in Jeddah. The food is incredible! -Sameed]]></description>
				<Point>
					<coordinates>39.199305,21.578572,0.0</coordinates>
				</Point>
			</Placemark>
			<Placemark>
				<styleUrl>#icon-125</styleUrl>
				<name>Koreana restaurant</name>
				<ExtendedData>
				</ExtendedData>
				<description><![CDATA[Restaurant is in what looks like residential area and may be difficult to find. Call 660-4769 if lost.]]></description>
				<Point>
					<coordinates>39.165337,21.535366,0.0</coordinates>
				</Point>
			</Placemark>
			<Placemark>
				<styleUrl>#icon-77</styleUrl>
				<name>United States Consulate</name>
				<ExtendedData>
				</ExtendedData>
				<description><![CDATA[This is the entrance for the US Consulate for passports, visas, document notarization, etc. Park in the hospital parking lot and cross the street to get to the entrance.]]></description>
				<Point>
					<coordinates>39.166039,21.525021,0.0</coordinates>
				</Point>
			</Placemark>
			<Placemark>
				<styleUrl>#icon-125</styleUrl>
				<name>Koreana restaurant</name>
				<ExtendedData>
				</ExtendedData>
				<description><![CDATA[Restaurant is in what looks like residential area and may be difficult to find. Call 660-4769 if lost.]]></description>
				<Point>
					<coordinates>39.165337,21.535366,0.0</coordinates>
				</Point>
			</Placemark>
			<Placemark>
				<styleUrl>#icon-125</styleUrl>
				<name>Asia Restaurant </name>
				<ExtendedData>
				</ExtendedData>
				<description><![CDATA[Thai Food - Recommended<br>See Review:<br>http://www.jeddahfood.com/?p=5548<br><br>02 6828525]]></description>
				<Point>
					<coordinates>39.161475,21.580608,0.0</coordinates>
				</Point>
			</Placemark>
			<Placemark>
				<styleUrl>#icon-31</styleUrl>
				<name>Look for Tent Makers in this area</name>
				<ExtendedData>
				</ExtendedData>
				<Point>
					<coordinates>39.535675,21.591043,0.0</coordinates>
				</Point>
			</Placemark>
			<Placemark>
				<styleUrl>#icon-37</styleUrl>
				<name>Fabric Souq</name>
				<ExtendedData>
				</ExtendedData>
				<Point>
					<coordinates>39.11407500000001,21.725059,0.0</coordinates>
				</Point>
			</Placemark>
			<Placemark>
				<styleUrl>#icon-37</styleUrl>
				<name>Souq Al-Shatea </name>
				<ExtendedData>
				</ExtendedData>
				<description><![CDATA[A nice souq for housewares, cheap shoes, kitchen stuff, limited clothing.  Open Air, lots of space, good for just wandering.  Easy parking.]]></description>
				<Point>
					<coordinates>39.129868,21.586254,0.0</coordinates>
				</Point>
			</Placemark>
			<Placemark>
				<styleUrl>#icon-37</styleUrl>
				<name>Bawadi Souq</name>
				<ExtendedData>
				</ExtendedData>
				<description><![CDATA[Huge semi-indoor souq.  Cheap clothing, luggage, etc.]]></description>
				<Point>
					<coordinates>39.172482,21.592185,0.0</coordinates>
				</Point>
			</Placemark>
			<Placemark>
				<styleUrl>#icon-131</styleUrl>
				<name>Aziz Mall</name>
				<ExtendedData>
				</ExtendedData>
				<Point>
					<coordinates>39.199305,21.576677,0.0</coordinates>
				</Point>
			</Placemark>
			<Placemark>
				<styleUrl>#icon-131</styleUrl>
				<name>Ali Reza Tower‏</name>
				<ExtendedData>
				</ExtendedData>
				<description><![CDATA[Al Madinah Al Munawarah Rd, Al Sharafiyah, Jeddah 22234, Saudi Arabia]]></description>
				<Point>
					<coordinates>39.182893,21.50498,0.0</coordinates>
				</Point>
			</Placemark>
			<Placemark>
				<styleUrl>#icon-105</styleUrl>
				<name>Balad Police Station</name>
				<ExtendedData>
				</ExtendedData>
				<Point>
					<coordinates>39.176704,21.501102,0.0</coordinates>
				</Point>
			</Placemark>
			<Placemark>
				<styleUrl>#icon-81</styleUrl>
				<name>Rosewood Corniche</name>
				<ExtendedData>
				</ExtendedData>
				<Point>
					<coordinates>39.11047,21.576677,0.0</coordinates>
				</Point>
			</Placemark>
			<Placemark>
				<styleUrl>#icon-125</styleUrl>
				<name>Aseel Restaurant</name>
				<ExtendedData>
				</ExtendedData>
				<Point>
					<coordinates>39.142573,21.559362,0.0</coordinates>
				</Point>
			</Placemark>
			<Placemark>
				<styleUrl>#icon-125</styleUrl>
				<name>Mélange</name>
				<ExtendedData>
				</ExtendedData>
				<Point>
					<coordinates>39.131241,21.668915,0.0</coordinates>
				</Point>
			</Placemark>
			<Placemark>
				<styleUrl>#icon-125</styleUrl>
				<name>Mayrig restaurant</name>
				<ExtendedData>
				</ExtendedData>
				<Point>
					<coordinates>39.172989,21.543489,0.0</coordinates>
				</Point>
			</Placemark>
			<Placemark>
				<styleUrl>#icon-125</styleUrl>
				<name>Piatto (Etoile Center)</name>
				<ExtendedData>
				</ExtendedData>
				<Point>
					<coordinates>39.127276,21.575055,0.0</coordinates>
				</Point>
			</Placemark>
			<Placemark>
				<styleUrl>#icon-125</styleUrl>
				<name>Margherita</name>
				<ExtendedData>
				</ExtendedData>
				<Point>
					<coordinates>39.142216,21.5595,0.0</coordinates>
				</Point>
			</Placemark>
			<Placemark>
				<styleUrl>#icon-27</styleUrl>
				<name>Motor Vehicle Periodic Inspection</name>
				<ExtendedData>
				</ExtendedData>
				<Point>
					<coordinates>39.194391,21.622923,0.0</coordinates>
				</Point>
			</Placemark>
			<Placemark>
				<styleUrl>#icon-69</styleUrl>
				<name>Effat University</name>
				<ExtendedData>
				</ExtendedData>
				<Point>
					<coordinates>39.210918,21.478472,0.0</coordinates>
				</Point>
			</Placemark>
			<Placemark>
				<styleUrl>#icon-131</styleUrl>
				<name>Roshan Mall</name>
				<ExtendedData>
				</ExtendedData>
				<Point>
					<coordinates>39.11013,21.665109,0.0</coordinates>
				</Point>
			</Placemark>
			<Placemark>
				<styleUrl>#icon-22</styleUrl>
				<name>Hainan Restaurant</name>
				<ExtendedData>
				</ExtendedData>
				<description><![CDATA[Fantastic Chinese food. Team of Chinese and Malaysian chefs re-create simple dishes and all time favourites.]]></description>
				<Point>
					<coordinates>39.059143,21.51249,0.0</coordinates>
				</Point>
			</Placemark>
			<Placemark>
				<styleUrl>#icon-22</styleUrl>
				<name>Silver Sands Beach Club</name>
				<ExtendedData>
				</ExtendedData>
				<description><![CDATA[GPS: +21° 46' 24.96", +39° 3' 4.32"<br>Phone: 02 656 2632]]></description>
				<Point>
					<coordinates>39.051201,21.7736,0.0</coordinates>
				</Point>
			</Placemark>
			<Placemark>
				<styleUrl>#icon-22</styleUrl>
				<name>Jeddah International Markets</name>
				<ExtendedData>
				</ExtendedData>
				<Point>
					<coordinates>39.170723,21.558398,0.0</coordinates>
				</Point>
			</Placemark>
			<Placemark>
				<styleUrl>#icon-22</styleUrl>
				<name>21.561271, 39.160767</name>
				<ExtendedData>
				</ExtendedData>
				<Point>
					<coordinates>39.160767,21.561271,0.0</coordinates>
				</Point>
			</Placemark>
			<Placemark>
				<styleUrl>#icon-22</styleUrl>
				<name>Silver Sands Beach Club</name>
				<ExtendedData>
				</ExtendedData>
				<description><![CDATA[GPS: +21° 46' 24.96", +39° 3' 4.32"<br>Phone: 02 656 2632]]></description>
				<Point>
					<coordinates>39.050431,21.771656,0.0</coordinates>
				</Point>
			</Placemark>
			<Placemark>
				<styleUrl>#icon-22</styleUrl>
				<name>Silver Sands Beach Club</name>
				<ExtendedData>
				</ExtendedData>
				<description><![CDATA[GPS: +21° 46' 24.96", +39° 3' 4.32"<br>Phone: 02 656 2632]]></description>
				<Point>
					<coordinates>39.051418,21.773688,0.0</coordinates>
				</Point>
			</Placemark>
			<Placemark>
				<styleUrl>#icon-22</styleUrl>
				<name>Palm Beach</name>
				<ExtendedData>
				</ExtendedData>
				<description><![CDATA[A private beach and accommodation facility.<br>Parking is outside (road side car park).<br>Yellow brick fence (wall) - Palm Beach written on this.<br>Entrance fee is < 100 SR.]]></description>
				<Point>
					<coordinates>39.075157,21.728962,0.0</coordinates>
				</Point>
			</Placemark>
			<Placemark>
				<styleUrl>#icon-22</styleUrl>
				<name>3422 Jabal At Tur, Mishrifah</name>
				<ExtendedData>
				</ExtendedData>
				<description><![CDATA[Jeddah 23331]]></description>
				<Point>
					<coordinates>39.187588,21.535206,0.0</coordinates>
				</Point>
			</Placemark>
			<Placemark>
				<styleUrl>#icon-22</styleUrl>
				<name>Afghan Souq</name>
				<ExtendedData>
				</ExtendedData>
				<Point>
					<coordinates>39.194638,21.477521,0.0</coordinates>
				</Point>
			</Placemark>
			<Placemark>
				<styleUrl>#icon-22</styleUrl>
				<name>Royton Sapporo</name>
				<ExtendedData>
				</ExtendedData>
				<Point>
					<coordinates>141.339841,43.060987,0.0</coordinates>
				</Point>
			</Placemark>
		</Folder>
		<Style id='icon-103'>
			<IconStyle>
				<scale>1.1</scale>
				<Icon>
					<href>http://www.gstatic.com/mapspro/images/stock/503-wht-blank_maps.png</href>
				</Icon>
			</IconStyle>
		</Style>
		<Style id='icon-105'>
			<IconStyle>
				<scale>1.1</scale>
				<Icon>
					<href>http://www.gstatic.com/mapspro/images/stock/503-wht-blank_maps.png</href>
				</Icon>
			</IconStyle>
		</Style>
		<Style id='icon-125'>
			<IconStyle>
				<scale>1.1</scale>
				<Icon>
					<href>http://www.gstatic.com/mapspro/images/stock/503-wht-blank_maps.png</href>
				</Icon>
			</IconStyle>
		</Style>
		<Style id='icon-131'>
			<IconStyle>
				<scale>1.1</scale>
				<Icon>
					<href>http://www.gstatic.com/mapspro/images/stock/503-wht-blank_maps.png</href>
				</Icon>
			</IconStyle>
		</Style>
		<Style id='icon-139'>
			<IconStyle>
				<scale>1.1</scale>
				<Icon>
					<href>http://www.gstatic.com/mapspro/images/stock/503-wht-blank_maps.png</href>
				</Icon>
			</IconStyle>
		</Style>
		<Style id='icon-149'>
			<IconStyle>
				<scale>1.1</scale>
				<Icon>
					<href>http://www.gstatic.com/mapspro/images/stock/503-wht-blank_maps.png</href>
				</Icon>
			</IconStyle>
		</Style>
		<Style id='icon-16'>
			<IconStyle>
				<scale>1.1</scale>
				<Icon>
					<href>http://www.gstatic.com/mapspro/images/stock/503-wht-blank_maps.png</href>
				</Icon>
			</IconStyle>
		</Style>
		<Style id='icon-170'>
			<IconStyle>
				<scale>1.1</scale>
				<Icon>
					<href>http://www.gstatic.com/mapspro/images/stock/503-wht-blank_maps.png</href>
				</Icon>
			</IconStyle>
		</Style>
		<Style id='icon-22'>
			<IconStyle>
				<scale>1.1</scale>
				<Icon>
					<href>http://www.gstatic.com/mapspro/images/stock/503-wht-blank_maps.png</href>
				</Icon>
			</IconStyle>
		</Style>
		<Style id='icon-27'>
			<IconStyle>
				<scale>1.1</scale>
				<Icon>
					<href>http://www.gstatic.com/mapspro/images/stock/503-wht-blank_maps.png</href>
				</Icon>
			</IconStyle>
		</Style>
		<Style id='icon-31'>
			<IconStyle>
				<scale>1.1</scale>
				<Icon>
					<href>http://www.gstatic.com/mapspro/images/stock/503-wht-blank_maps.png</href>
				</Icon>
			</IconStyle>
		</Style>
		<Style id='icon-35'>
			<IconStyle>
				<scale>1.1</scale>
				<Icon>
					<href>http://www.gstatic.com/mapspro/images/stock/503-wht-blank_maps.png</href>
				</Icon>
			</IconStyle>
		</Style>
		<Style id='icon-37'>
			<IconStyle>
				<scale>1.1</scale>
				<Icon>
					<href>http://www.gstatic.com/mapspro/images/stock/503-wht-blank_maps.png</href>
				</Icon>
			</IconStyle>
		</Style>
		<Style id='icon-39'>
			<IconStyle>
				<scale>1.1</scale>
				<Icon>
					<href>http://www.gstatic.com/mapspro/images/stock/503-wht-blank_maps.png</href>
				</Icon>
			</IconStyle>
		</Style>
		<Style id='icon-41'>
			<IconStyle>
				<scale>1.1</scale>
				<Icon>
					<href>http://www.gstatic.com/mapspro/images/stock/503-wht-blank_maps.png</href>
				</Icon>
			</IconStyle>
		</Style>
		<Style id='icon-49'>
			<IconStyle>
				<scale>1.1</scale>
				<Icon>
					<href>http://www.gstatic.com/mapspro/images/stock/503-wht-blank_maps.png</href>
				</Icon>
			</IconStyle>
		</Style>
		<Style id='icon-69'>
			<IconStyle>
				<scale>1.1</scale>
				<Icon>
					<href>http://www.gstatic.com/mapspro/images/stock/503-wht-blank_maps.png</href>
				</Icon>
			</IconStyle>
		</Style>
		<Style id='icon-73'>
			<IconStyle>
				<scale>1.1</scale>
				<Icon>
					<href>http://www.gstatic.com/mapspro/images/stock/503-wht-blank_maps.png</href>
				</Icon>
			</IconStyle>
		</Style>
		<Style id='icon-77'>
			<IconStyle>
				<scale>1.1</scale>
				<Icon>
					<href>http://www.gstatic.com/mapspro/images/stock/503-wht-blank_maps.png</href>
				</Icon>
			</IconStyle>
		</Style>
		<Style id='icon-81'>
			<IconStyle>
				<scale>1.1</scale>
				<Icon>
					<href>http://www.gstatic.com/mapspro/images/stock/503-wht-blank_maps.png</href>
				</Icon>
			</IconStyle>
		</Style>
		<Style id='icon-85'>
			<IconStyle>
				<scale>1.1</scale>
				<Icon>
					<href>http://www.gstatic.com/mapspro/images/stock/503-wht-blank_maps.png</href>
				</Icon>
			</IconStyle>
		</Style>
	</Document>
</kml>