<?xml version="1.0" encoding="UTF-8"?>
<kml xmlns="http://earth.google.com/kml/2.2">
<Document>
  <name>JEDDAH SHOPPING</name>
  <description><![CDATA[This is a compilation of several Jeddah area maps.  Please add locations or email terry@terryking.us]]></description>
  <Style id="style107">
    <IconStyle>
      <Icon>
        <href>http://maps.gstatic.com/intl/en_ALL/mapfiles/ms/micons/hospitals.png</href>
      </Icon>
    </IconStyle>
  </Style>
  <Style id="style112">
    <IconStyle>
      <Icon>
        <href>http://maps.gstatic.com/intl/en_ALL/mapfiles/ms/micons/lodging.png</href>
      </Icon>
    </IconStyle>
  </Style>
  <Style id="style66">
    <IconStyle>
      <Icon>
        <href>http://maps.gstatic.com/intl/en_ALL/mapfiles/ms/micons/convienancestore.png</href>
      </Icon>
    </IconStyle>
  </Style>
  <Style id="style35">
    <IconStyle>
      <Icon>
        <href>http://maps.gstatic.com/intl/en_ALL/mapfiles/ms/micons/convienancestore.png</href>
      </Icon>
    </IconStyle>
  </Style>
  <Style id="style44">
    <IconStyle>
      <Icon>
        <href>http://www.internationalschoolphotos.com/redseainfo.info/GE-IKEA.png</href>
      </Icon>
    </IconStyle>
  </Style>
  <Style id="style11">
    <IconStyle>
      <Icon>
        <href>http://maps.gstatic.com/intl/en_ALL/mapfiles/ms/micons/convienancestore.png</href>
      </Icon>
    </IconStyle>
  </Style>
  <Style id="style92">
    <IconStyle>
      <Icon>
        <href>http://www.internationalschoolphotos.com/redseainfo.info/GE-SACO.png</href>
      </Icon>
    </IconStyle>
  </Style>
  <Style id="style48">
    <IconStyle>
      <Icon>
        <href>http://maps.gstatic.com/intl/en_ALL/mapfiles/ms/micons/convienancestore.png</href>
      </Icon>
    </IconStyle>
  </Style>
  <Style id="style36">
    <IconStyle>
      <Icon>
        <href>http://maps.gstatic.com/intl/en_ALL/mapfiles/ms/micons/grocerystore.png</href>
      </Icon>
    </IconStyle>
  </Style>
  <Style id="style76">
    <IconStyle>
      <Icon>
        <href>http://maps.gstatic.com/intl/en_ALL/mapfiles/ms/micons/grocerystore.png</href>
      </Icon>
    </IconStyle>
  </Style>
  <Style id="style28">
    <IconStyle>
      <Icon>
        <href>http://maps.gstatic.com/intl/en_ALL/mapfiles/ms/micons/convienancestore.png</href>
      </Icon>
    </IconStyle>
  </Style>
  <Style id="style52">
    <IconStyle>
      <Icon>
        <href>http://maps.gstatic.com/intl/en_ALL/mapfiles/ms/micons/convienancestore.png</href>
      </Icon>
    </IconStyle>
  </Style>
  <Style id="style24">
    <IconStyle>
      <Icon>
        <href>http://maps.gstatic.com/intl/en_ALL/mapfiles/ms/micons/convienancestore.png</href>
      </Icon>
    </IconStyle>
  </Style>
  <Style id="style40">
    <IconStyle>
      <Icon>
        <href>http://maps.gstatic.com/intl/en_ALL/mapfiles/ms/micons/convienancestore.png</href>
      </Icon>
    </IconStyle>
  </Style>
  <Style id="style14">
    <IconStyle>
      <Icon>
        <href>http://maps.gstatic.com/intl/en_ALL/mapfiles/ms/micons/convienancestore.png</href>
      </Icon>
    </IconStyle>
  </Style>
  <Style id="style108">
    <IconStyle>
      <Icon>
        <href>http://maps.gstatic.com/intl/en_ALL/mapfiles/ms/micons/convienancestore.png</href>
      </Icon>
    </IconStyle>
  </Style>
  <Style id="style22">
    <IconStyle>
      <Icon>
        <href>http://maps.gstatic.com/intl/en_ALL/mapfiles/ms/micons/grocerystore.png</href>
      </Icon>
    </IconStyle>
  </Style>
  <Style id="style73">
    <IconStyle>
      <Icon>
        <href>http://maps.gstatic.com/intl/en_ALL/mapfiles/ms/micons/convienancestore.png</href>
      </Icon>
    </IconStyle>
  </Style>
  <Style id="style8">
    <IconStyle>
      <Icon>
        <href>http://maps.gstatic.com/intl/en_ALL/mapfiles/ms/micons/cycling.png</href>
      </Icon>
    </IconStyle>
  </Style>
  <Style id="style30">
    <IconStyle>
      <Icon>
        <href>http://maps.gstatic.com/intl/en_ALL/mapfiles/ms/micons/mechanic.png</href>
      </Icon>
    </IconStyle>
  </Style>
  <Style id="style57">
    <IconStyle>
      <Icon>
        <href>http://maps.gstatic.com/intl/en_ALL/mapfiles/ms/micons/restaurant.png</href>
      </Icon>
    </IconStyle>
  </Style>
  <Style id="style95">
    <IconStyle>
      <Icon>
        <href>http://maps.gstatic.com/intl/en_ALL/mapfiles/ms/micons/convienancestore.png</href>
      </Icon>
    </IconStyle>
  </Style>
  <Style id="style79">
    <IconStyle>
      <Icon>
        <href>http://maps.gstatic.com/intl/en_ALL/mapfiles/ms/micons/water.png</href>
      </Icon>
    </IconStyle>
  </Style>
  <Style id="style110">
    <IconStyle>
      <Icon>
        <href>http://maps.gstatic.com/intl/en_ALL/mapfiles/ms/micons/swimming.png</href>
      </Icon>
    </IconStyle>
  </Style>
  <Style id="style100">
    <IconStyle>
      <Icon>
        <href>http://maps.gstatic.com/intl/en_ALL/mapfiles/ms/micons/water.png</href>
      </Icon>
    </IconStyle>
  </Style>
  <Style id="style98">
    <IconStyle>
      <Icon>
        <href>http://maps.gstatic.com/intl/en_ALL/mapfiles/ms/micons/restaurant.png</href>
      </Icon>
    </IconStyle>
  </Style>
  <Style id="style82">
    <IconStyle>
      <Icon>
        <href>http://maps.gstatic.com/intl/en_ALL/mapfiles/ms/micons/coffeehouse.png</href>
      </Icon>
    </IconStyle>
  </Style>
  <Style id="style31">
    <IconStyle>
      <Icon>
        <href>http://maps.gstatic.com/intl/en_ALL/mapfiles/ms/micons/dollar.png</href>
      </Icon>
    </IconStyle>
  </Style>
  <Style id="style55">
    <IconStyle>
      <Icon>
        <href>http://maps.gstatic.com/intl/en_ALL/mapfiles/ms/micons/restaurant.png</href>
      </Icon>
    </IconStyle>
  </Style>
  <Style id="style6">
    <IconStyle>
      <Icon>
        <href>http://maps.gstatic.com/intl/en_ALL/mapfiles/ms/micons/coffeehouse.png</href>
      </Icon>
    </IconStyle>
  </Style>
  <Style id="style86">
    <IconStyle>
      <Icon>
        <href>http://maps.gstatic.com/intl/en_ALL/mapfiles/ms/micons/police.png</href>
      </Icon>
    </IconStyle>
  </Style>
  <Style id="style56">
    <IconStyle>
      <Icon>
        <href>http://maps.gstatic.com/intl/en_ALL/mapfiles/ms/micons/swimming.png</href>
      </Icon>
    </IconStyle>
  </Style>
  <Style id="style20">
    <IconStyle>
      <Icon>
        <href>http://maps.gstatic.com/intl/en_ALL/mapfiles/ms/micons/shopping.png</href>
      </Icon>
    </IconStyle>
  </Style>
  <Style id="style49">
    <IconStyle>
      <Icon>
        <href>http://maps.gstatic.com/intl/en_ALL/mapfiles/ms/micons/shopping.png</href>
      </Icon>
    </IconStyle>
  </Style>
  <Style id="style113">
    <IconStyle>
      <Icon>
        <href>http://maps.gstatic.com/intl/en_ALL/mapfiles/ms/micons/blue-dot.png</href>
      </Icon>
    </IconStyle>
  </Style>
  <Style id="style87">
    <IconStyle>
      <Icon>
        <href>http://maps.gstatic.com/intl/en_ALL/mapfiles/ms/micons/blue-dot.png</href>
      </Icon>
    </IconStyle>
  </Style>
  <Style id="style53">
    <IconStyle>
      <Icon>
        <href>http://maps.gstatic.com/intl/en_ALL/mapfiles/ms/micons/convienancestore.png</href>
      </Icon>
    </IconStyle>
  </Style>
  <Style id="style38">
    <IconStyle>
      <Icon>
        <href>http://maps.gstatic.com/intl/en_ALL/mapfiles/ms/micons/mechanic.png</href>
      </Icon>
    </IconStyle>
  </Style>
  <Style id="style32">
    <IconStyle>
      <Icon>
        <href>http://maps.gstatic.com/intl/en_ALL/mapfiles/ms/micons/convienancestore.png</href>
      </Icon>
    </IconStyle>
  </Style>
  <Style id="style71">
    <IconStyle>
      <Icon>
        <href>http://maps.gstatic.com/intl/en_ALL/mapfiles/ms/micons/mechanic.png</href>
      </Icon>
    </IconStyle>
  </Style>
  <Style id="style39">
    <IconStyle>
      <Icon>
        <href>http://maps.gstatic.com/intl/en_ALL/mapfiles/ms/micons/convienancestore.png</href>
      </Icon>
    </IconStyle>
  </Style>
  <Style id="style104">
    <IconStyle>
      <Icon>
        <href>http://maps.gstatic.com/intl/en_ALL/mapfiles/ms/micons/convienancestore.png</href>
      </Icon>
    </IconStyle>
  </Style>
  <Style id="style78">
    <IconStyle>
      <Icon>
        <href>http://maps.gstatic.com/intl/en_ALL/mapfiles/ms/micons/pink.png</href>
      </Icon>
    </IconStyle>
  </Style>
  <Style id="style4">
    <IconStyle>
      <Icon>
        <href>http://maps.gstatic.com/intl/en_ALL/mapfiles/ms/micons/blue-dot.png</href>
      </Icon>
    </IconStyle>
  </Style>
  <Style id="style33">
    <IconStyle>
      <Icon>
        <href>http://maps.gstatic.com/intl/en_ALL/mapfiles/ms/micons/blue-dot.png</href>
      </Icon>
    </IconStyle>
  </Style>
  <Style id="style90">
    <IconStyle>
      <Icon>
        <href></href>
      </Icon>
    </IconStyle>
  </Style>
  <Style id="style25">
    <IconStyle>
      <Icon>
        <href></href>
      </Icon>
    </IconStyle>
  </Style>
  <Style id="style63">
    <IconStyle>
      <Icon>
        <href>http://maps.gstatic.com/intl/en_ALL/mapfiles/ms/micons/convienancestore.png</href>
      </Icon>
    </IconStyle>
  </Style>
  <Style id="style10">
    <IconStyle>
      <Icon>
        <href>http://maps.gstatic.com/intl/en_ALL/mapfiles/ms/micons/convienancestore.png</href>
      </Icon>
    </IconStyle>
  </Style>
  <Style id="style91">
    <IconStyle>
      <Icon>
        <href>http://maps.gstatic.com/intl/en_ALL/mapfiles/ms/micons/convienancestore.png</href>
      </Icon>
    </IconStyle>
  </Style>
  <Style id="style80">
    <IconStyle>
      <Icon>
        <href>http://maps.gstatic.com/intl/en_ALL/mapfiles/ms/micons/pink-dot.png</href>
      </Icon>
    </IconStyle>
  </Style>
  <Style id="style50">
    <IconStyle>
      <Icon>
        <href>http://maps.gstatic.com/intl/en_ALL/mapfiles/ms/micons/police.png</href>
      </Icon>
    </IconStyle>
  </Style>
  <Style id="style67">
    <IconStyle>
      <Icon>
        <href>http://maps.gstatic.com/intl/en_ALL/mapfiles/ms/micons/plane.png</href>
      </Icon>
    </IconStyle>
  </Style>
  <Style id="style7">
    <IconStyle>
      <Icon>
        <href>http://maps.gstatic.com/intl/en_ALL/mapfiles/ms/micons/plane.png</href>
      </Icon>
    </IconStyle>
  </Style>
  <Style id="style59">
    <IconStyle>
      <Icon>
        <href>http://maps.gstatic.com/intl/en_ALL/mapfiles/ms/micons/blue.png</href>
      </Icon>
    </IconStyle>
  </Style>
  <Style id="style19">
    <IconStyle>
      <Icon>
        <href>http://maps.gstatic.com/intl/en_ALL/mapfiles/ms/micons/swimming.png</href>
      </Icon>
    </IconStyle>
  </Style>
  <Style id="style17">
    <IconStyle>
      <Icon>
        <href>http://maps.gstatic.com/intl/en_ALL/mapfiles/ms/micons/swimming.png</href>
      </Icon>
    </IconStyle>
  </Style>
  <Style id="style26">
    <IconStyle>
      <Icon>
        <href>http://maps.gstatic.com/intl/en_ALL/mapfiles/ms/micons/swimming.png</href>
      </Icon>
    </IconStyle>
  </Style>
  <Style id="style60">
    <IconStyle>
      <Icon>
        <href>http://maps.gstatic.com/intl/en_ALL/mapfiles/ms/micons/ferry.png</href>
      </Icon>
    </IconStyle>
  </Style>
  <Style id="style74">
    <IconStyle>
      <Icon>
        <href>http://maps.gstatic.com/intl/en_ALL/mapfiles/ms/micons/ferry.png</href>
      </Icon>
    </IconStyle>
  </Style>
  <Style id="style27">
    <IconStyle>
      <Icon>
        <href>http://maps.gstatic.com/intl/en_ALL/mapfiles/ms/micons/lodging.png</href>
      </Icon>
    </IconStyle>
  </Style>
  <Style id="style34">
    <IconStyle>
      <Icon>
        <href>http://maps.gstatic.com/intl/en_ALL/mapfiles/ms/micons/police.png</href>
      </Icon>
    </IconStyle>
  </Style>
  <Style id="style41">
    <IconStyle>
      <Icon>
        <href>http://maps.gstatic.com/intl/en_ALL/mapfiles/ms/micons/plane.png</href>
      </Icon>
    </IconStyle>
  </Style>
  <Style id="style99">
    <IconStyle>
      <Icon>
        <href>http://maps.gstatic.com/intl/en_ALL/mapfiles/ms/micons/swimming.png</href>
      </Icon>
    </IconStyle>
  </Style>
  <Style id="style46">
    <IconStyle>
      <Icon>
        <href>http://maps.gstatic.com/intl/en_ALL/mapfiles/ms/micons/swimming.png</href>
      </Icon>
    </IconStyle>
  </Style>
  <Style id="style3">
    <IconStyle>
      <Icon>
        <href>http://maps.gstatic.com/intl/en_ALL/mapfiles/ms/micons/homegardenbusiness.png</href>
      </Icon>
    </IconStyle>
  </Style>
  <Style id="style45">
    <IconStyle>
      <Icon>
        <href>http://maps.gstatic.com/intl/en_ALL/mapfiles/ms/micons/homegardenbusiness.png</href>
      </Icon>
    </IconStyle>
  </Style>
  <Style id="style5">
    <IconStyle>
      <Icon>
        <href>http://maps.gstatic.com/intl/en_ALL/mapfiles/ms/micons/homegardenbusiness.png</href>
      </Icon>
    </IconStyle>
  </Style>
  <Style id="style93">
    <IconStyle>
      <Icon>
        <href>http://maps.gstatic.com/intl/en_ALL/mapfiles/ms/micons/blue.png</href>
      </Icon>
    </IconStyle>
  </Style>
  <Style id="style18">
    <IconStyle>
      <Icon>
        <href>http://maps.gstatic.com/intl/en_ALL/mapfiles/ms/micons/restaurant.png</href>
      </Icon>
    </IconStyle>
  </Style>
  <Style id="style115">
    <IconStyle>
      <Icon>
        <href>http://maps.gstatic.com/intl/en_ALL/mapfiles/ms/micons/dollar.png</href>
      </Icon>
    </IconStyle>
  </Style>
  <Style id="style114">
    <IconStyle>
      <Icon>
        <href>http://maps.gstatic.com/intl/en_ALL/mapfiles/ms/micons/plane.png</href>
      </Icon>
    </IconStyle>
  </Style>
  <Style id="style51">
    <IconStyle>
      <Icon>
        <href>http://maps.gstatic.com/intl/en_ALL/mapfiles/ms/micons/plane.png</href>
      </Icon>
    </IconStyle>
  </Style>
  <Style id="style12">
    <IconStyle>
      <Icon>
        <href>http://maps.gstatic.com/intl/en_ALL/mapfiles/ms/micons/grocerystore.png</href>
      </Icon>
    </IconStyle>
  </Style>
  <Style id="style81">
    <IconStyle>
      <Icon>
        <href>http://maps.gstatic.com/intl/en_ALL/mapfiles/ms/micons/convienancestore.png</href>
      </Icon>
    </IconStyle>
  </Style>
  <Style id="style101">
    <IconStyle>
      <Icon>
        <href>http://maps.gstatic.com/intl/en_ALL/mapfiles/ms/micons/convienancestore.png</href>
      </Icon>
    </IconStyle>
  </Style>
  <Style id="style42">
    <IconStyle>
      <Icon>
        <href>http://maps.gstatic.com/intl/en_ALL/mapfiles/ms/micons/convienancestore.png</href>
      </Icon>
    </IconStyle>
  </Style>
  <Style id="style54">
    <IconStyle>
      <Icon>
        <href>http://maps.gstatic.com/intl/en_ALL/mapfiles/ms/micons/convienancestore.png</href>
      </Icon>
    </IconStyle>
  </Style>
  <Style id="style43">
    <IconStyle>
      <Icon>
        <href>http://maps.gstatic.com/intl/en_ALL/mapfiles/ms/micons/grocerystore.png</href>
      </Icon>
    </IconStyle>
  </Style>
  <Style id="style9">
    <IconStyle>
      <Icon>
        <href>http://maps.gstatic.com/intl/en_ALL/mapfiles/ms/micons/water.png</href>
      </Icon>
    </IconStyle>
  </Style>
  <Style id="style103">
    <IconStyle>
      <Icon>
        <href>http://maps.gstatic.com/intl/en_ALL/mapfiles/ms/micons/water.png</href>
      </Icon>
    </IconStyle>
  </Style>
  <Style id="style21">
    <IconStyle>
      <Icon>
        <href>http://maps.gstatic.com/intl/en_ALL/mapfiles/ms/micons/restaurant.png</href>
      </Icon>
    </IconStyle>
  </Style>
  <Style id="style89">
    <IconStyle>
      <Icon>
        <href>http://maps.gstatic.com/intl/en_ALL/mapfiles/ms/micons/convienancestore.png</href>
      </Icon>
    </IconStyle>
  </Style>
  <Style id="style75">
    <IconStyle>
      <Icon>
        <href>http://maps.gstatic.com/intl/en_ALL/mapfiles/ms/micons/coffeehouse.png</href>
      </Icon>
    </IconStyle>
  </Style>
  <Style id="style1">
    <IconStyle>
      <Icon>
        <href>http://maps.gstatic.com/intl/en_ALL/mapfiles/ms/micons/coffeehouse.png</href>
      </Icon>
    </IconStyle>
  </Style>
  <Style id="style37">
    <IconStyle>
      <Icon>
        <href>http://maps.gstatic.com/intl/en_ALL/mapfiles/ms/micons/convienancestore.png</href>
      </Icon>
    </IconStyle>
  </Style>
  <Style id="style23">
    <IconStyle>
      <Icon>
        <href>http://maps.gstatic.com/intl/en_ALL/mapfiles/ms/micons/cycling.png</href>
      </Icon>
    </IconStyle>
  </Style>
  <Style id="style70">
    <IconStyle>
      <Icon>
        <href>http://maps.gstatic.com/intl/en_ALL/mapfiles/ms/micons/lodging.png</href>
      </Icon>
    </IconStyle>
  </Style>
  <Style id="style102">
    <IconStyle>
      <Icon>
        <href>http://maps.gstatic.com/intl/en_ALL/mapfiles/ms/micons/homegardenbusiness.png</href>
      </Icon>
    </IconStyle>
  </Style>
  <Style id="style72">
    <IconStyle>
      <Icon>
        <href>http://maps.gstatic.com/intl/en_ALL/mapfiles/ms/micons/homegardenbusiness.png</href>
      </Icon>
    </IconStyle>
  </Style>
  <Style id="style111">
    <IconStyle>
      <Icon>
        <href>http://maps.gstatic.com/intl/en_ALL/mapfiles/ms/micons/homegardenbusiness.png</href>
      </Icon>
    </IconStyle>
  </Style>
  <Style id="style94">
    <IconStyle>
      <Icon>
        <href>http://maps.gstatic.com/intl/en_ALL/mapfiles/ms/micons/lodging.png</href>
      </Icon>
    </IconStyle>
  </Style>
  <Style id="style106">
    <IconStyle>
      <Icon>
        <href>http://maps.gstatic.com/intl/en_ALL/mapfiles/ms/micons/lodging.png</href>
      </Icon>
    </IconStyle>
  </Style>
  <Style id="style64">
    <IconStyle>
      <Icon>
        <href>http://maps.gstatic.com/intl/en_ALL/mapfiles/ms/micons/lodging.png</href>
      </Icon>
    </IconStyle>
  </Style>
  <Style id="style96">
    <IconStyle>
      <Icon>
        <href>http://maps.gstatic.com/intl/en_ALL/mapfiles/ms/micons/lodging.png</href>
      </Icon>
    </IconStyle>
  </Style>
  <Style id="style13">
    <IconStyle>
      <Icon>
        <href>http://maps.gstatic.com/intl/en_ALL/mapfiles/ms/micons/lodging.png</href>
      </Icon>
    </IconStyle>
  </Style>
  <Style id="style16">
    <IconStyle>
      <Icon>
        <href>http://maps.gstatic.com/intl/en_ALL/mapfiles/ms/micons/lodging.png</href>
      </Icon>
    </IconStyle>
  </Style>
  <Style id="style109">
    <IconStyle>
      <Icon>
        <href>http://maps.gstatic.com/intl/en_ALL/mapfiles/ms/micons/lodging.png</href>
      </Icon>
    </IconStyle>
  </Style>
  <Style id="style69">
    <IconStyle>
      <Icon>
        <href>http://maps.gstatic.com/intl/en_ALL/mapfiles/ms/micons/lodging.png</href>
      </Icon>
    </IconStyle>
  </Style>
  <Style id="style97">
    <IconStyle>
      <Icon>
        <href>http://maps.gstatic.com/intl/en_ALL/mapfiles/ms/micons/lodging.png</href>
      </Icon>
    </IconStyle>
  </Style>
  <Style id="style84">
    <IconStyle>
      <Icon>
        <href>http://maps.gstatic.com/intl/en_ALL/mapfiles/ms/micons/lodging.png</href>
      </Icon>
    </IconStyle>
  </Style>
  <Style id="style77">
    <IconStyle>
      <Icon>
        <href>http://maps.gstatic.com/intl/en_ALL/mapfiles/ms/micons/lodging.png</href>
      </Icon>
    </IconStyle>
  </Style>
  <Style id="style61">
    <IconStyle>
      <Icon>
        <href>http://maps.gstatic.com/intl/en_ALL/mapfiles/ms/micons/lodging.png</href>
      </Icon>
    </IconStyle>
  </Style>
  <Style id="style62">
    <IconStyle>
      <Icon>
        <href>http://maps.gstatic.com/intl/en_ALL/mapfiles/ms/micons/mechanic.png</href>
      </Icon>
    </IconStyle>
  </Style>
  <Style id="style58">
    <IconStyle>
      <Icon>
        <href>http://maps.gstatic.com/intl/en_ALL/mapfiles/ms/micons/convienancestore.png</href>
      </Icon>
    </IconStyle>
  </Style>
  <Style id="style85">
    <IconStyle>
      <Icon>
        <href>http://maps.gstatic.com/intl/en_ALL/mapfiles/ms/micons/convienancestore.png</href>
      </Icon>
    </IconStyle>
  </Style>
  <Style id="style47">
    <IconStyle>
      <Icon>
        <href>http://maps.gstatic.com/intl/en_ALL/mapfiles/ms/micons/swimming.png</href>
      </Icon>
    </IconStyle>
  </Style>
  <Style id="style15">
    <IconStyle>
      <Icon>
        <href>http://maps.gstatic.com/intl/en_ALL/mapfiles/ms/micons/POI.png</href>
      </Icon>
    </IconStyle>
  </Style>
  <Style id="style29">
    <IconStyle>
      <Icon>
        <href>http://maps.gstatic.com/intl/en_ALL/mapfiles/ms/micons/ferry.png</href>
      </Icon>
    </IconStyle>
  </Style>
  <Style id="style2">
    <IconStyle>
      <Icon>
        <href>http://maps.gstatic.com/intl/en_ALL/mapfiles/ms/micons/POI.png</href>
      </Icon>
    </IconStyle>
  </Style>
  <Style id="style68">
    <IconStyle>
      <Icon>
        <href>http://maps.gstatic.com/intl/en_ALL/mapfiles/ms/micons/POI.png</href>
      </Icon>
    </IconStyle>
  </Style>
  <Style id="style65">
    <IconStyle>
      <Icon>
        <href>http://maps.gstatic.com/intl/en_ALL/mapfiles/ms/micons/POI.png</href>
      </Icon>
    </IconStyle>
  </Style>
  <Style id="style116">
    <IconStyle>
      <Icon>
        <href>http://maps.gstatic.com/intl/en_ALL/mapfiles/ms/micons/police.png</href>
      </Icon>
    </IconStyle>
  </Style>
  <Style id="style83">
    <IconStyle>
      <Icon>
        <href>http://maps.gstatic.com/intl/en_ALL/mapfiles/ms/micons/police.png</href>
      </Icon>
    </IconStyle>
  </Style>
  <Style id="style88">
    <IconStyle>
      <Icon>
        <href>http://maps.gstatic.com/intl/en_ALL/mapfiles/ms/micons/police.png</href>
      </Icon>
    </IconStyle>
  </Style>
  <Style id="style105">
    <IconStyle>
      <Icon>
        <href>http://maps.gstatic.com/mapfiles/ms2/micons/blue-dot.png</href>
      </Icon>
    </IconStyle>
  </Style>
  <Placemark>
    <name>IMC - Emergency Room</name>
    <Snippet></Snippet>
    <description><![CDATA[]]></description>
    <styleUrl>#style107</styleUrl>
    <Point>
      <coordinates>39.175350,21.513832,0.000000</coordinates>
    </Point>
  </Placemark>
  <Placemark>
    <name>IMC - International Medical Center, Jeddah</name>
    <Snippet>International Medical CenterPO Box: 2172Jeddah: 21451Phone: +966 2 650 9000Fax: </Snippet>
    <description><![CDATA[<div dir="ltr">International Medical Center<br>PO Box: 2172<br>Jeddah: 21451<br><br>Phone: +966 2 650 9000<br>Fax: +966 2 653 5045<br>E-mail: imcinfo@imc.med.sa</div>]]></description>
    <styleUrl>#style112</styleUrl>
    <Point>
      <coordinates>39.174286,21.513458,0.000000</coordinates>
    </Point>
  </Placemark>
  <Placemark>
    <name>Sewing Machine Shops</name>
    <description><![CDATA[]]></description>
    <styleUrl>#style66</styleUrl>
    <Point>
      <coordinates>39.187138,21.477751,0.000000</coordinates>
    </Point>
  </Placemark>
  <Placemark>
    <name>HindaWeyah (Ribbon Souk)</name>
    <description><![CDATA[<div dir="ltr">Thanks, Linda!</div>]]></description>
    <styleUrl>#style35</styleUrl>
    <Point>
      <coordinates>39.183308,21.475964,0.000000</coordinates>
    </Point>
  </Placemark>
  <Placemark>
    <name>IKEA</name>
    <Snippet>P.O.Box 8054, Jeddah 21482 – Saudi ArabiaPhone: +966 2 6633000Saturday to Thur</Snippet>
    <description><![CDATA[<div dir="ltr">P.O.Box 8054, Jeddah 21482 – Saudi Arabia<br>Phone: +966 2 6633000<br>Saturday to Thursday: 10:00 – 24:00<br>Friday: 16:00 – 24:00<br>Special opening hours in Ramadan and EID. 	<br><br>E-mail: Infojed@ikea.com.sa <br><br><br></div>]]></description>
    <styleUrl>#style44</styleUrl>
    <Point>
      <coordinates>39.183533,21.555544,0.000000</coordinates>
    </Point>
  </Placemark>
  <Placemark>
    <name>SACO World Hardware</name>
    <description><![CDATA[<div dir="ltr">The Really Big SACO Hardware store..</div>]]></description>
    <styleUrl>#style11</styleUrl>
    <Point>
      <coordinates>39.121490,21.661709,0.000000</coordinates>
    </Point>
  </Placemark>
  <Placemark>
    <name>SACO</name>
    <Snippet>Hardware Storehttp://www.saco-ksa.com/</Snippet>
    <description><![CDATA[<div dir="ltr">Hardware Store<br>http://www.saco-ksa.com/</div>]]></description>
    <styleUrl>#style92</styleUrl>
    <Point>
      <coordinates>39.205528,21.562988,0.000000</coordinates>
    </Point>
  </Placemark>
  <Placemark>
    <name>Toy&#39;s R Us</name>
    <Snippet>Store is in the Roshan Mall.  On the Mosaic globe roundabout.</Snippet>
    <description><![CDATA[<div dir="ltr">Store is in the Roshan Mall.  On the Mosaic globe roundabout.</div>]]></description>
    <styleUrl>#style48</styleUrl>
    <Point>
      <coordinates>39.108925,21.663771,0.000000</coordinates>
    </Point>
  </Placemark>
  <Placemark>
    <name>Hyper Panda</name>
    <Snippet>Hypermarket. Large grocery store with dry goods also. In the Roshan Mall</Snippet>
    <description><![CDATA[<div dir="ltr">Hypermarket. Large grocery store with dry goods also. In the Roshan Mall</div>]]></description>
    <styleUrl>#style36</styleUrl>
    <Point>
      <coordinates>39.108452,21.664806,0.000000</coordinates>
    </Point>
  </Placemark>
  <Placemark>
    <name>Danube</name>
    <Snippet>Hypermarket. Large grocery store with dry goods also.  In the Red Sea Mall.</Snippet>
    <description><![CDATA[<div dir="ltr">Hypermarket. Large grocery store with dry goods also.  In the Red Sea Mall.</div>]]></description>
    <styleUrl>#style76</styleUrl>
    <Point>
      <coordinates>39.110256,21.626883,0.000000</coordinates>
    </Point>
  </Placemark>
  <Placemark>
    <name>Jeddah International Markets</name>
    <Snippet></Snippet>
    <description><![CDATA[]]></description>
    <styleUrl>#style28</styleUrl>
    <Point>
      <coordinates>39.170551,21.558317,0.000000</coordinates>
    </Point>
  </Placemark>
  <Placemark>
    <name>Al-Muhaidib Hardware</name>
    <Snippet>I found door chains here. Door lock, handles etc. </Snippet>
    <description><![CDATA[<div dir="ltr">I found door chains here. Door lock, handles etc. </div>]]></description>
    <styleUrl>#style52</styleUrl>
    <Point>
      <coordinates>39.178703,21.557421,0.000000</coordinates>
    </Point>
  </Placemark>
  <Placemark>
    <name>Computer Stores</name>
    <Snippet></Snippet>
    <description><![CDATA[]]></description>
    <styleUrl>#style24</styleUrl>
    <Point>
      <coordinates>39.153728,21.612471,0.000000</coordinates>
    </Point>
  </Placemark>
  <Placemark>
    <name>Emax Store 1 (electronics)</name>
    <Snippet>Sitteen Street, Bawadi,Jeddah,Tel: +966 2 6977519, 6977517</Snippet>
    <description><![CDATA[<div dir="ltr">Sitteen Street, Bawadi,<br>Jeddah,<br>Tel: +966 2 6977519, 6977517</div>]]></description>
    <styleUrl>#style40</styleUrl>
    <Point>
      <coordinates>39.176861,21.590605,0.000000</coordinates>
    </Point>
  </Placemark>
  <Placemark>
    <name>Emax store 2 (electronics)</name>
    <Snippet>Centrepoint Dome Dome - Amir Sultan Street,JeddahTel: +966 2 6394492</Snippet>
    <description><![CDATA[<div dir="ltr">Centrepoint Dome <br>Dome - Amir Sultan Street,<br>Jeddah<br>Tel: +966 2 6394492</div>]]></description>
    <styleUrl>#style14</styleUrl>
    <Point>
      <coordinates>39.141109,21.606686,0.000000</coordinates>
    </Point>
  </Placemark>
  <Placemark>
    <name>Computer Shops</name>
    <Snippet></Snippet>
    <description><![CDATA[<div dir="ltr">Farther Down this street: Khalid Al Waleed St.</div>]]></description>
    <styleUrl>#style108</styleUrl>
    <Point>
      <coordinates>39.185078,21.529299,0.000000</coordinates>
    </Point>
  </Placemark>
  <Placemark>
    <name>Hyper Panda</name>
    <Snippet>Hyper Market. Large grocery st</Snippet>
    <description><![CDATA[<div dir="ltr">Hyper Market. Large grocery st</div>]]></description>
    <styleUrl>#style22</styleUrl>
    <Point>
      <coordinates>39.204132,21.563267,0.000000</coordinates>
    </Point>
  </Placemark>
  <Placemark>
    <name>Extra</name>
    <Snippet>Electronics and home appliances store</Snippet>
    <description><![CDATA[<div dir="ltr">Electronics and home appliances store</div>]]></description>
    <styleUrl>#style73</styleUrl>
    <Point>
      <coordinates>39.143234,21.597956,0.000000</coordinates>
    </Point>
  </Placemark>
  <Placemark>
    <name>Wheels</name>
    <Snippet>The only specialised bike shop in Jeddah. Trak only. Phone: 698 1302.Note that t</Snippet>
    <description><![CDATA[<div dir="ltr">The only specialised bike shop in Jeddah. Trak only. Phone: 698 1302.<br><br>Note that the roundabout the map shows West is here has been replaced with an overpass along Sari Street. To get to Wheels you need to approach from East and NOT go on the overpass.</div>]]></description>
    <styleUrl>#style8</styleUrl>
    <Point>
      <coordinates>39.145294,21.575548,0.000000</coordinates>
    </Point>
  </Placemark>
  <Placemark>
    <name>SITACO</name>
    <Snippet></Snippet>
    <description><![CDATA[]]></description>
    <styleUrl>#style30</styleUrl>
    <Point>
      <coordinates>39.166538,21.574732,0.000000</coordinates>
    </Point>
  </Placemark>
  <Placemark>
    <name>APPLEBEE&#39;s</name>
    <description><![CDATA[<div dir="ltr">Restaurant</div>]]></description>
    <styleUrl>#style57</styleUrl>
    <Point>
      <coordinates>39.139824,21.612829,0.000000</coordinates>
    </Point>
  </Placemark>
  <Placemark>
    <name>Toyota Car Dealer</name>
    <Snippet></Snippet>
    <description><![CDATA[]]></description>
    <styleUrl>#style95</styleUrl>
    <Point>
      <coordinates>39.203960,21.633814,0.000000</coordinates>
    </Point>
  </Placemark>
  <Placemark>
    <name>Albilad Beach</name>
    <Snippet>GPS: +21° 42&#39; 29.22&quot;, +39° 5&#39; 9.90&quot;</Snippet>
    <description><![CDATA[GPS: +21° 42' 29.22", +39° 5' 9.90"<br>]]></description>
    <styleUrl>#style79</styleUrl>
    <Point>
      <coordinates>39.084751,21.710089,0.000000</coordinates>
    </Point>
  </Placemark>
  <Placemark>
    <name>Silver Sands</name>
    <Snippet>No dive shop; lots of sand so a nice beach.</Snippet>
    <description><![CDATA[<div dir="ltr">No dive shop; lots of sand so a nice beach.</div>]]></description>
    <styleUrl>#style110</styleUrl>
    <Point>
      <coordinates>39.054016,21.773071,0.000000</coordinates>
    </Point>
  </Placemark>
  <Placemark>
    <name>Silver Sands Beach Club</name>
    <Snippet>GPS: +21° 46&#39; 24.96&quot;, +39° 3&#39; 4.32&quot;Phone: 02 656 2632</Snippet>
    <description><![CDATA[GPS: +21° 46' 24.96", +39° 3' 4.32"<br>Phone: <span style="font-family:Arial"><font face="Comic Sans MS, Arial, Helvetica"><font size="2">02 656 2632</font></font></span>]]></description>
    <styleUrl>#style100</styleUrl>
    <Point>
      <coordinates>39.051201,21.773600,0.000000</coordinates>
    </Point>
  </Placemark>
  <Placemark>
    <name>Fish restaurant</name>
    <Snippet></Snippet>
    <description><![CDATA[<br>]]></description>
    <styleUrl>#style98</styleUrl>
    <Point>
      <coordinates>39.103958,21.718073,0.000000</coordinates>
    </Point>
  </Placemark>
  <Placemark>
    <name>Starbucks</name>
    <Snippet></Snippet>
    <description><![CDATA[]]></description>
    <styleUrl>#style82</styleUrl>
    <Point>
      <coordinates>39.145294,21.598234,0.000000</coordinates>
    </Point>
  </Placemark>
  <Placemark>
    <name>SABB Branch</name>
    <Snippet></Snippet>
    <description><![CDATA[]]></description>
    <styleUrl>#style31</styleUrl>
    <Point>
      <coordinates>39.142700,21.571289,0.000000</coordinates>
    </Point>
  </Placemark>
  <Placemark>
    <name>Good Seafood Restaurant</name>
    <Snippet></Snippet>
    <description><![CDATA[]]></description>
    <styleUrl>#style55</styleUrl>
    <Point>
      <coordinates>39.105740,21.588215,0.000000</coordinates>
    </Point>
  </Placemark>
  <Placemark>
    <name>Starbucks</name>
    <Snippet>Inside Centrepoint Mall, Lower Level.</Snippet>
    <description><![CDATA[<div dir="ltr">Inside Centrepoint Mall, Lower Level.</div>]]></description>
    <styleUrl>#style6</styleUrl>
    <Point>
      <coordinates>39.141380,21.606575,0.000000</coordinates>
    </Point>
  </Placemark>
  <Placemark>
    <name>Check Point</name>
    <Snippet></Snippet>
    <description><![CDATA[]]></description>
    <styleUrl>#style86</styleUrl>
    <Point>
      <coordinates>39.120621,21.798895,0.000000</coordinates>
    </Point>
  </Placemark>
  <Placemark>
    <name>Red Sea Resort (Sheraton)</name>
    <Snippet></Snippet>
    <description><![CDATA[]]></description>
    <styleUrl>#style56</styleUrl>
    <Point>
      <coordinates>39.072361,21.735115,0.000000</coordinates>
    </Point>
  </Placemark>
  <Placemark>
    <name>Jarir Bookstore</name>
    <Snippet>on Sar[iy] Street.Showroom Timings: Sat-Thu 9am-2pm, 4.30pm-11pm; Fri 4.30pm-11p</Snippet>
    <description><![CDATA[<div dir="ltr">on Sar[iy] Street.<br><br>Showroom Timings: Sat-Thu 9am-2pm, 4.30pm-11pm; Fri 4.30pm-11pm<br>Tel. No. +966 2 682-7666, Fax No.+966 2 698-1120 </div>]]></description>
    <styleUrl>#style20</styleUrl>
    <Point>
      <coordinates>39.145775,21.574816,0.000000</coordinates>
    </Point>
  </Placemark>
  <Placemark>
    <name>Jarir Bookstore</name>
    <Snippet>on Sar[iy] Street.Showroom Timings: Sat-Thu 9am-2pm, 4.30pm-11pm; Fri 4.30pm-11p</Snippet>
    <description><![CDATA[<div dir="ltr">on Sar[iy] Street.<br><br>Showroom Timings: Sat-Thu 9am-2pm, 4.30pm-11pm; Fri 4.30pm-11pm<br>Tel. No. +966 2 682-7666, Fax No.+966 2 698-1120 </div>]]></description>
    <styleUrl>#style49</styleUrl>
    <Point>
      <coordinates>39.145775,21.574816,0.000000</coordinates>
    </Point>
  </Placemark>
  <Placemark>
    <name>Jarir Ibn Abdullah</name>
    <description><![CDATA[Jeddah 23216, Saudi Arabia<br>]]></description>
    <styleUrl>#style113</styleUrl>
    <Point>
      <coordinates>39.188049,21.516396,0.000000</coordinates>
    </Point>
  </Placemark>
  <Placemark>
    <name>Jarir</name>
    <description><![CDATA[Jeddah 23324, Saudi Arabia<br>]]></description>
    <styleUrl>#style87</styleUrl>
    <Point>
      <coordinates>39.174213,21.538012,0.000000</coordinates>
    </Point>
  </Placemark>
  <Placemark>
    <name>Jarir Bookstore</name>
    <Snippet></Snippet>
    <description><![CDATA[<div dir="ltr">In &quot;JARIR MALL&quot;</div>]]></description>
    <styleUrl>#style53</styleUrl>
    <Point>
      <coordinates>39.132408,21.639967,0.000000</coordinates>
    </Point>
  </Placemark>
  <Placemark>
    <name>SACO: HARDWARE</name>
    <Snippet></Snippet>
    <description><![CDATA[]]></description>
    <styleUrl>#style38</styleUrl>
    <Point>
      <coordinates>39.165100,21.518284,0.000000</coordinates>
    </Point>
  </Placemark>
  <Placemark>
    <name>Mega Mall</name>
    <Snippet></Snippet>
    <description><![CDATA[]]></description>
    <styleUrl>#style32</styleUrl>
    <Point>
      <coordinates>39.184757,21.560432,0.000000</coordinates>
    </Point>
  </Placemark>
  <Placemark>
    <name>Electrical Shops along this street</name>
    <Snippet>(east - west)</Snippet>
    <description><![CDATA[<div dir="ltr">(east - west)</div>]]></description>
    <styleUrl>#style71</styleUrl>
    <Point>
      <coordinates>39.178940,21.550774,0.000000</coordinates>
    </Point>
  </Placemark>
  <Placemark>
    <name>Jarrir Bookstore</name>
    <Snippet></Snippet>
    <description><![CDATA[]]></description>
    <styleUrl>#style39</styleUrl>
    <Point>
      <coordinates>39.145618,21.574720,0.000000</coordinates>
    </Point>
  </Placemark>
  <Placemark>
    <name>I-Zone</name>
    <Snippet>Apple shop.</Snippet>
    <description><![CDATA[<div dir="ltr">Apple shop.</div>]]></description>
    <styleUrl>#style104</styleUrl>
    <Point>
      <coordinates>39.165688,21.553034,0.000000</coordinates>
    </Point>
  </Placemark>
  <Placemark>
    <name>Hera International Mall</name>
    <Snippet></Snippet>
    <description><![CDATA[]]></description>
    <styleUrl>#style78</styleUrl>
    <Point>
      <coordinates>39.152954,21.615622,0.000000</coordinates>
    </Point>
  </Placemark>
  <Placemark>
    <name>COMPUTER Shops: MANY (N)</name>
    <description><![CDATA[<div dir="ltr">This is about the North end of the Computer Shops &apos;Souk&apos;.<br>DETAILS? See: http://redseainfo.info</div>]]></description>
    <styleUrl>#style4</styleUrl>
    <Point>
      <coordinates>39.185673,21.520290,0.000000</coordinates>
    </Point>
  </Placemark>
  <Placemark>
    <name>Computer Shops: MANY (S)</name>
    <description><![CDATA[<div dir="ltr">This is about the South end of the Computer Stores strip. DETAILS? See: http://redseainfo.info</div>]]></description>
    <styleUrl>#style33</styleUrl>
    <Point>
      <coordinates>39.185867,21.516527,0.000000</coordinates>
    </Point>
  </Placemark>
  <Placemark>
    <name>Electronic shops location Jeddah 22237, Saudi Arabia</name>
    <description><![CDATA[+21° 29' 12.33", +39° 11' 50.13"<br>]]></description>
    <styleUrl>#style90</styleUrl>
    <Point>
      <coordinates>39.197258,21.486757,0.000000</coordinates>
    </Point>
  </Placemark>
  <Placemark>
    <name>computer supplies,Baroom centre,6733 Fayd Ar Rida, Jeddah 23213</name>
    <description><![CDATA[+21° 30' 46.30", +39° 10' 21.21"<br>]]></description>
    <styleUrl>#style25</styleUrl>
    <Point>
      <coordinates>39.172558,21.512861,0.000000</coordinates>
    </Point>
  </Placemark>
  <Placemark>
    <name>eMax (or ???)</name>
    <Snippet>Consumer electronics, media. etc.</Snippet>
    <description><![CDATA[<div dir="ltr">Consumer electronics, media. etc.</div>]]></description>
    <styleUrl>#style63</styleUrl>
    <Point>
      <coordinates>39.175850,21.595472,0.000000</coordinates>
    </Point>
  </Placemark>
  <Placemark>
    <name>Mall of Arabia</name>
    <Snippet></Snippet>
    <description><![CDATA[]]></description>
    <styleUrl>#style10</styleUrl>
    <Point>
      <coordinates>39.155521,21.632847,0.000000</coordinates>
    </Point>
  </Placemark>
  <Placemark>
    <name>Red Sea Mall</name>
    <Snippet></Snippet>
    <description><![CDATA[]]></description>
    <styleUrl>#style91</styleUrl>
    <Point>
      <coordinates>39.110855,21.627550,0.000000</coordinates>
    </Point>
  </Placemark>
  <Placemark>
    <name>KAUST</name>
    <Snippet>King Abdullah University of Science Technology</Snippet>
    <description><![CDATA[<div dir="ltr">King Abdullah University of Science Technology</div>]]></description>
    <styleUrl>#style80</styleUrl>
    <Point>
      <coordinates>39.105923,22.309109,0.000000</coordinates>
    </Point>
  </Placemark>
  <Placemark>
    <name>Check Point</name>
    <Snippet></Snippet>
    <description><![CDATA[]]></description>
    <styleUrl>#style50</styleUrl>
    <Point>
      <coordinates>39.117123,22.087803,0.000000</coordinates>
    </Point>
  </Placemark>
  <Placemark>
    <name>JED - North Terminal</name>
    <Snippet>All airlines other than Saudi Airlines (Saudia)</Snippet>
    <description><![CDATA[<div dir="ltr">All airlines other than Saudi Airlines (Saudia)</div>]]></description>
    <styleUrl>#style67</styleUrl>
    <Point>
      <coordinates>39.143517,21.688217,0.000000</coordinates>
    </Point>
  </Placemark>
  <Placemark>
    <name>JED - South Terminal</name>
    <Snippet>Saudi Airlines (Saudia) only</Snippet>
    <description><![CDATA[<div dir="ltr">Saudi Airlines (Saudia) only</div>]]></description>
    <styleUrl>#style7</styleUrl>
    <Point>
      <coordinates>39.151237,21.667877,0.000000</coordinates>
    </Point>
  </Placemark>
  <Placemark>
    <name>IOB - KAUST</name>
    <Snippet></Snippet>
    <description><![CDATA[]]></description>
    <styleUrl>#style59</styleUrl>
    <Point>
      <coordinates>39.142834,21.567173,0.000000</coordinates>
    </Point>
  </Placemark>
  <Placemark>
    <name>Palm Beach</name>
    <Snippet>A private beach and accommodation facility.Parking is outside (road side car par</Snippet>
    <description><![CDATA[<div dir="ltr">A private beach and accommodation facility.<br>Parking is outside (road side car park).<br>Yellow brick fence (wall) - Palm Beach written on this.<br>Entrance fee is &lt; 100 SR.</div>]]></description>
    <styleUrl>#style19</styleUrl>
    <Point>
      <coordinates>39.075157,21.728962,0.000000</coordinates>
    </Point>
  </Placemark>
  <Placemark>
    <name>Al-Bilad Beach</name>
    <Snippet>Nice beach; Nice diving; Nice food.Dive shop is under stocked, so be there early</Snippet>
    <description><![CDATA[<div dir="ltr">Nice beach; Nice diving; Nice food.<br><br>Dive shop is under stocked, so be there early if you need rental equipment.<br><br>They&apos;ll take the air tanks out to the setup area, and bring the empties back - bonus points.</div>]]></description>
    <styleUrl>#style17</styleUrl>
    <Point>
      <coordinates>39.085537,21.710571,0.000000</coordinates>
    </Point>
  </Placemark>
  <Placemark>
    <name>Dream Beach</name>
    <Snippet>Diving is ok; Dive shop is good (nice rental equipment); The setup area was way </Snippet>
    <description><![CDATA[<div dir="ltr">Diving is ok; Dive shop is good (nice rental equipment); The setup area was way too crowded; The setup area was muddy too - not nice.</div>]]></description>
    <styleUrl>#style26</styleUrl>
    <Point>
      <coordinates>39.053745,21.757816,0.000000</coordinates>
    </Point>
  </Placemark>
  <Placemark>
    <name>Desert Sea Divers</name>
    <Snippet>The Desert Sea Divers shop and marina. Depart here for boat trips.http://www.des</Snippet>
    <description><![CDATA[<div dir="ltr">The Desert Sea Divers shop and marina. Depart here for boat trips.<br>http://www.desertseadivers.com</div>]]></description>
    <styleUrl>#style60</styleUrl>
    <Point>
      <coordinates>39.106995,21.730576,0.000000</coordinates>
    </Point>
  </Placemark>
  <Placemark>
    <name>Dream Divers</name>
    <Snippet>Depart here for boat trips.</Snippet>
    <description><![CDATA[<div dir="ltr">Depart here for boat trips.</div>]]></description>
    <styleUrl>#style74</styleUrl>
    <Point>
      <coordinates>39.123058,21.736643,0.000000</coordinates>
    </Point>
  </Placemark>
  <Placemark>
    <name>Al Lith Resort</name>
    <Snippet></Snippet>
    <description><![CDATA[]]></description>
    <styleUrl>#style27</styleUrl>
    <Point>
      <coordinates>40.246845,20.158010,0.000000</coordinates>
    </Point>
  </Placemark>
  <Placemark>
    <name>Checkpoint</name>
    <Snippet></Snippet>
    <description><![CDATA[]]></description>
    <styleUrl>#style34</styleUrl>
    <Point>
      <coordinates>39.255779,21.408072,0.000000</coordinates>
    </Point>
  </Placemark>
  <Placemark>
    <name>Riyadh Airport</name>
    <Snippet></Snippet>
    <description><![CDATA[]]></description>
    <styleUrl>#style41</styleUrl>
    <Point>
      <coordinates>46.703632,24.958281,0.000000</coordinates>
    </Point>
  </Placemark>
  <Placemark>
    <name>KAUST Beach</name>
    <Snippet></Snippet>
    <description><![CDATA[]]></description>
    <styleUrl>#style99</styleUrl>
    <Point>
      <coordinates>39.090092,22.292665,0.000000</coordinates>
    </Point>
  </Placemark>
  <Placemark>
    <name>Intercontinental Beach</name>
    <Snippet>[TBC]Desert Sea Divers</Snippet>
    <description><![CDATA[<div dir="ltr">[TBC]<br><br>Desert Sea Divers</div>]]></description>
    <styleUrl>#style46</styleUrl>
    <Point>
      <coordinates>39.082077,21.718628,0.000000</coordinates>
    </Point>
  </Placemark>
  <Placemark>
    <name>Park Hyatt Hotel</name>
    <Snippet></Snippet>
    <description><![CDATA[]]></description>
    <styleUrl>#style3</styleUrl>
    <Point>
      <coordinates>39.154984,21.513374,0.000000</coordinates>
    </Point>
  </Placemark>
  <Placemark>
    <name>Rosewood Hotel</name>
    <Snippet></Snippet>
    <description><![CDATA[]]></description>
    <styleUrl>#style45</styleUrl>
    <Point>
      <coordinates>39.110378,21.576391,0.000000</coordinates>
    </Point>
  </Placemark>
  <Placemark>
    <name>Habitat Hotel</name>
    <Snippet></Snippet>
    <description><![CDATA[]]></description>
    <styleUrl>#style5</styleUrl>
    <Point>
      <coordinates>39.156570,21.606915,0.000000</coordinates>
    </Point>
  </Placemark>
  <Placemark>
    <name>IOB - KAUST</name>
    <Snippet></Snippet>
    <description><![CDATA[]]></description>
    <styleUrl>#style93</styleUrl>
    <Point>
      <coordinates>39.142834,21.567173,0.000000</coordinates>
    </Point>
  </Placemark>
  <Placemark>
    <name>Good Seafood Restaurant</name>
    <Snippet></Snippet>
    <description><![CDATA[]]></description>
    <styleUrl>#style18</styleUrl>
    <Point>
      <coordinates>39.105740,21.588215,0.000000</coordinates>
    </Point>
  </Placemark>
  <Placemark>
    <name>SABB Branch</name>
    <Snippet></Snippet>
    <description><![CDATA[]]></description>
    <styleUrl>#style115</styleUrl>
    <Point>
      <coordinates>39.142700,21.571289,0.000000</coordinates>
    </Point>
  </Placemark>
  <Placemark>
    <name>JED - North Terminal</name>
    <Snippet>All airlines other than Saudi Airlines (Saudia)</Snippet>
    <description><![CDATA[<div dir="ltr">All airlines other than Saudi Airlines (Saudia)</div>]]></description>
    <styleUrl>#style114</styleUrl>
    <Point>
      <coordinates>39.143517,21.688217,0.000000</coordinates>
    </Point>
  </Placemark>
  <Placemark>
    <name>JED - South Terminal</name>
    <Snippet>Saudi Airlines (Saudia) only</Snippet>
    <description><![CDATA[<div dir="ltr">Saudi Airlines (Saudia) only</div>]]></description>
    <styleUrl>#style51</styleUrl>
    <Point>
      <coordinates>39.151237,21.667877,0.000000</coordinates>
    </Point>
  </Placemark>
  <Placemark>
    <name>Danube</name>
    <Snippet>Hypermarket. Large grocery store with dry goods also.  In the Red Sea Mall.</Snippet>
    <description><![CDATA[<div dir="ltr">Hypermarket. Large grocery store with dry goods also.  In the Red Sea Mall.</div>]]></description>
    <styleUrl>#style12</styleUrl>
    <Point>
      <coordinates>39.110256,21.626883,0.000000</coordinates>
    </Point>
  </Placemark>
  <Placemark>
    <name>Al-Muhaidib Hardware</name>
    <Snippet>I found door chains here. Door lock, handles etc. </Snippet>
    <description><![CDATA[<div dir="ltr">I found door chains here. Door lock, handles etc. </div>]]></description>
    <styleUrl>#style81</styleUrl>
    <Point>
      <coordinates>39.178661,21.557480,0.000000</coordinates>
    </Point>
  </Placemark>
  <Placemark>
    <name>Emax Store 1 (electronics)</name>
    <Snippet>Sitteen Street, Bawadi,Jeddah,Tel: +966 2 6977519, 6977517</Snippet>
    <description><![CDATA[<div dir="ltr">Sitteen Street, Bawadi,<br>Jeddah,<br>Tel: +966 2 6977519, 6977517</div>]]></description>
    <styleUrl>#style101</styleUrl>
    <Point>
      <coordinates>39.176861,21.590605,0.000000</coordinates>
    </Point>
  </Placemark>
  <Placemark>
    <name>Emax store 2 (electronics)</name>
    <Snippet>Centrepoint Dome Dome - Amir Sultan Street,JeddahTel: +966 2 6394492</Snippet>
    <description><![CDATA[<div dir="ltr">Centrepoint Dome <br>Dome - Amir Sultan Street,<br>Jeddah<br>Tel: +966 2 6394492</div>]]></description>
    <styleUrl>#style42</styleUrl>
    <Point>
      <coordinates>39.141109,21.606686,0.000000</coordinates>
    </Point>
  </Placemark>
  <Placemark>
    <name>Lingo Computer Store</name>
    <Snippet>Sells Apple products</Snippet>
    <description><![CDATA[<div dir="ltr">Sells Apple products</div>]]></description>
    <styleUrl>#style54</styleUrl>
    <Point>
      <coordinates>39.109867,21.665245,0.000000</coordinates>
    </Point>
  </Placemark>
  <Placemark>
    <name>Hyper Panda</name>
    <Snippet>Hyper Market. Large grocery st</Snippet>
    <description><![CDATA[<div dir="ltr">Hyper Market. Large grocery st</div>]]></description>
    <styleUrl>#style43</styleUrl>
    <Point>
      <coordinates>39.204132,21.563267,0.000000</coordinates>
    </Point>
  </Placemark>
  <Placemark>
    <name>Albilad Beach</name>
    <Snippet>GPS: +21° 42&#39; 29.22&quot;, +39° 5&#39; 9.90&quot;</Snippet>
    <description><![CDATA[GPS: +21° 42' 29.22", +39° 5' 9.90"<br>]]></description>
    <styleUrl>#style9</styleUrl>
    <Point>
      <coordinates>39.084751,21.710089,0.000000</coordinates>
    </Point>
  </Placemark>
  <Placemark>
    <name>Silver Sands Beach Club</name>
    <Snippet>GPS: +21° 46&#39; 24.96&quot;, +39° 3&#39; 4.32&quot;Phone: 02 656 2632</Snippet>
    <description><![CDATA[GPS: +21° 46' 24.96", +39° 3' 4.32"<br>Phone: <span style="font-family:Arial"><font face="Comic Sans MS, Arial, Helvetica"><font size="2">02 656 2632</font></font></span>]]></description>
    <styleUrl>#style103</styleUrl>
    <Point>
      <coordinates>39.051201,21.773600,0.000000</coordinates>
    </Point>
  </Placemark>
  <Placemark>
    <name>Fish restaurant</name>
    <Snippet></Snippet>
    <description><![CDATA[<br>]]></description>
    <styleUrl>#style21</styleUrl>
    <Point>
      <coordinates>39.103958,21.718073,0.000000</coordinates>
    </Point>
  </Placemark>
  <Placemark>
    <name>Extra</name>
    <Snippet>Electronics and home appliances store</Snippet>
    <description><![CDATA[<div dir="ltr">Electronics and home appliances store</div>]]></description>
    <styleUrl>#style89</styleUrl>
    <Point>
      <coordinates>39.143234,21.597956,0.000000</coordinates>
    </Point>
  </Placemark>
  <Placemark>
    <name>Starbucks</name>
    <Snippet></Snippet>
    <description><![CDATA[]]></description>
    <styleUrl>#style75</styleUrl>
    <Point>
      <coordinates>39.145294,21.598234,0.000000</coordinates>
    </Point>
  </Placemark>
  <Placemark>
    <name>Starbucks</name>
    <Snippet>Inside Centrepoint Mall, Lower Level.</Snippet>
    <description><![CDATA[<div dir="ltr">Inside Centrepoint Mall, Lower Level.</div>]]></description>
    <styleUrl>#style1</styleUrl>
    <Point>
      <coordinates>39.141380,21.606575,0.000000</coordinates>
    </Point>
  </Placemark>
  <Placemark>
    <name>Toyota Car Dealer</name>
    <Snippet></Snippet>
    <description><![CDATA[]]></description>
    <styleUrl>#style37</styleUrl>
    <Point>
      <coordinates>39.203960,21.633814,0.000000</coordinates>
    </Point>
  </Placemark>
  <Placemark>
    <name>Wheels</name>
    <Snippet>The only specialised bike shop in Jeddah. Trak only. Phone: 698 1302.Note that t</Snippet>
    <description><![CDATA[<div dir="ltr">The only specialised bike shop in Jeddah. Trak only. Phone: 698 1302.<br><br>Note that the roundabout the map shows West is here has been replaced with an overpass along Sari Street. To get to Wheels you need to approach from East and NOT go on the overpass.</div>]]></description>
    <styleUrl>#style23</styleUrl>
    <Point>
      <coordinates>39.145294,21.575548,0.000000</coordinates>
    </Point>
  </Placemark>
  <Placemark>
    <name>Four Seasons</name>
    <Snippet></Snippet>
    <description><![CDATA[]]></description>
    <styleUrl>#style70</styleUrl>
    <Point>
      <coordinates>46.673557,24.711058,0.000000</coordinates>
    </Point>
  </Placemark>
  <Placemark>
    <name>Park Hyatt Hotel</name>
    <Snippet></Snippet>
    <description><![CDATA[]]></description>
    <styleUrl>#style102</styleUrl>
    <Point>
      <coordinates>39.154984,21.513374,0.000000</coordinates>
    </Point>
  </Placemark>
  <Placemark>
    <name>Habitat Hotel</name>
    <Snippet></Snippet>
    <description><![CDATA[]]></description>
    <styleUrl>#style72</styleUrl>
    <Point>
      <coordinates>39.156570,21.606915,0.000000</coordinates>
    </Point>
  </Placemark>
  <Placemark>
    <name>Rosewood Hotel</name>
    <Snippet></Snippet>
    <description><![CDATA[]]></description>
    <styleUrl>#style111</styleUrl>
    <Point>
      <coordinates>39.110378,21.576391,0.000000</coordinates>
    </Point>
  </Placemark>
  <Placemark>
    <name>Habitat hotel</name>
    <Snippet></Snippet>
    <description><![CDATA[]]></description>
    <styleUrl>#style94</styleUrl>
    <Point>
      <coordinates>39.156387,21.606943,0.000000</coordinates>
    </Point>
  </Placemark>
  <Placemark>
    <name>Rosewood Corniche</name>
    <Snippet></Snippet>
    <description><![CDATA[]]></description>
    <styleUrl>#style106</styleUrl>
    <Point>
      <coordinates>39.110374,21.576418,0.000000</coordinates>
    </Point>
  </Placemark>
  <Placemark>
    <name>Hilton Hotel</name>
    <Snippet></Snippet>
    <description><![CDATA[]]></description>
    <styleUrl>#style64</styleUrl>
    <Point>
      <coordinates>39.109192,21.604530,0.000000</coordinates>
    </Point>
  </Placemark>
  <Placemark>
    <name>Holiday Inn Jeddah-Al Salam</name>
    <Snippet></Snippet>
    <description><![CDATA[]]></description>
    <styleUrl>#style96</styleUrl>
    <Point>
      <coordinates>39.182709,21.484301,0.000000</coordinates>
    </Point>
  </Placemark>
  <Placemark>
    <name>Holiday Inn - Intercontinental</name>
    <Snippet></Snippet>
    <description><![CDATA[]]></description>
    <styleUrl>#style13</styleUrl>
    <Point>
      <coordinates>39.155815,21.515638,0.000000</coordinates>
    </Point>
  </Placemark>
  <Placemark>
    <name>Holiday Inn - Crowne Plaza (nearby)</name>
    <Snippet></Snippet>
    <description><![CDATA[]]></description>
    <styleUrl>#style16</styleUrl>
    <Point>
      <coordinates>39.156658,21.514212,0.000000</coordinates>
    </Point>
  </Placemark>
  <Placemark>
    <name>Le Meridien</name>
    <Snippet></Snippet>
    <description><![CDATA[]]></description>
    <styleUrl>#style109</styleUrl>
    <Point>
      <coordinates>39.172180,21.558962,0.000000</coordinates>
    </Point>
  </Placemark>
  <Placemark>
    <name>Radisson Blu Royal Suites</name>
    <Snippet></Snippet>
    <description><![CDATA[]]></description>
    <styleUrl>#style69</styleUrl>
    <Point>
      <coordinates>39.177666,21.534958,0.000000</coordinates>
    </Point>
  </Placemark>
  <Placemark>
    <name>Sultan</name>
    <Snippet></Snippet>
    <description><![CDATA[]]></description>
    <styleUrl>#style97</styleUrl>
    <Point>
      <coordinates>39.142090,21.608330,0.000000</coordinates>
    </Point>
  </Placemark>
  <Placemark>
    <name>Avail Hotel and Suite</name>
    <Snippet></Snippet>
    <description><![CDATA[]]></description>
    <styleUrl>#style84</styleUrl>
    <Point>
      <coordinates>39.155025,21.612141,0.000000</coordinates>
    </Point>
  </Placemark>
  <Placemark>
    <name>Sheraton Towers</name>
    <Snippet></Snippet>
    <description><![CDATA[]]></description>
    <styleUrl>#style77</styleUrl>
    <Point>
      <coordinates>46.665127,24.727449,0.000000</coordinates>
    </Point>
  </Placemark>
  <Placemark>
    <name>Marriott Jeddah</name>
    <description><![CDATA[]]></description>
    <styleUrl>#style61</styleUrl>
    <Point>
      <coordinates>39.195236,21.531874,0.000000</coordinates>
    </Point>
  </Placemark>
  <Placemark>
    <name>RADIO SHACK</name>
    <description><![CDATA[]]></description>
    <styleUrl>#style62</styleUrl>
    <Point>
      <coordinates>39.169350,21.567417,0.000000</coordinates>
    </Point>
  </Placemark>
  <Placemark>
    <name>THALIA MALL</name>
    <description><![CDATA[]]></description>
    <styleUrl>#style58</styleUrl>
    <Point>
      <coordinates>39.148834,21.549059,0.000000</coordinates>
    </Point>
  </Placemark>
  <Placemark>
    <name>DANUBE SUPERMARKET</name>
    <description><![CDATA[]]></description>
    <styleUrl>#style85</styleUrl>
    <Point>
      <coordinates>39.163170,21.549156,0.000000</coordinates>
    </Point>
  </Placemark>
  <Placemark>
    <name>DIVE SHOPS</name>
    <description><![CDATA[<div dir="ltr">2 in Danube Building, One across parking lot.</div>]]></description>
    <styleUrl>#style47</styleUrl>
    <Point>
      <coordinates>39.162289,21.548698,0.000000</coordinates>
    </Point>
  </Placemark>
  <Placemark>
    <name>EXIT for SULTAN ST.</name>
    <description><![CDATA[<div dir="ltr">To Jarir Mall, etc.</div>]]></description>
    <styleUrl>#style15</styleUrl>
    <Point>
      <coordinates>39.125404,21.672585,0.000000</coordinates>
    </Point>
  </Placemark>
  <Placemark>
    <name>BOAT DEALER</name>
    <description><![CDATA[]]></description>
    <styleUrl>#style29</styleUrl>
    <Point>
      <coordinates>39.120686,21.607084,0.000000</coordinates>
    </Point>
  </Placemark>
  <Placemark>
    <name>EXIT BACK FROM MALL OF ARABIA</name>
    <description><![CDATA[<div dir="ltr">This is the U-Turn to get back on Madina Rd to KAUST from Mall of Arabia...</div>]]></description>
    <styleUrl>#style2</styleUrl>
    <Point>
      <coordinates>39.182011,21.631161,0.000000</coordinates>
    </Point>
  </Placemark>
  <Placemark>
    <name>THUWAL EXIT</name>
    <description><![CDATA[]]></description>
    <styleUrl>#style68</styleUrl>
    <Point>
      <coordinates>39.125961,22.273132,0.000000</coordinates>
    </Point>
  </Placemark>
  <Placemark>
    <name>KAUST EXIT: MAIN GATE</name>
    <description><![CDATA[]]></description>
    <styleUrl>#style65</styleUrl>
    <Point>
      <coordinates>39.148041,22.307402,0.000000</coordinates>
    </Point>
  </Placemark>
  <Placemark>
    <name>KAUST-MAIN GATE</name>
    <description><![CDATA[]]></description>
    <styleUrl>#style116</styleUrl>
    <Point>
      <coordinates>39.138309,22.320393,0.000000</coordinates>
    </Point>
  </Placemark>
  <Placemark>
    <name>KAUST-VENDOR GATE</name>
    <description><![CDATA[]]></description>
    <styleUrl>#style83</styleUrl>
    <Point>
      <coordinates>39.122337,22.303480,0.000000</coordinates>
    </Point>
  </Placemark>
  <Placemark>
    <name>KAUST-THUWAL GATE</name>
    <description><![CDATA[]]></description>
    <styleUrl>#style88</styleUrl>
    <Point>
      <coordinates>39.104286,22.298656,0.000000</coordinates>
    </Point>
  </Placemark>
  <Placemark>
    <name>Dar Al-Hekma University</name>
    <description><![CDATA[]]></description>
    <styleUrl>#style105</styleUrl>
    <Point>
      <coordinates>39.230568,21.488691,0.000000</coordinates>
    </Point>
  </Placemark>
</Document>
</kml>
