<?xml version='1.0' encoding='UTF-8'?>
<kml xmlns='http://www.opengis.net/kml/2.2'>
	<Document>
		<name>Istanbul resturant, Thuwal, Saudi Arabia</name>
		<description><![CDATA[]]></description>
		<Folder>
			<name>Untitled layer</name>
			<Placemark>
				<styleUrl>#icon-161</styleUrl>
				<name>Hardware Store</name>
				<ExtendedData>
				</ExtendedData>
				<description><![CDATA[Hardware, paint, electrical, hose, wood, plumbing]]></description>
				<Point>
					<coordinates>38.880615,23.034243,0.0</coordinates>
				</Point>
			</Placemark>
			<Placemark>
				<styleUrl>#icon-161</styleUrl>
				<name>Tailor</name>
				<ExtendedData>
				</ExtendedData>
				<description><![CDATA[Tailor. Get your thobe!]]></description>
				<Point>
					<coordinates>39.112326,22.286188,0.0</coordinates>
				</Point>
			</Placemark>
			<Placemark>
				<styleUrl>#icon-161</styleUrl>
				<name>Shwarma Carry-out</name>
				<ExtendedData>
				</ExtendedData>
				<description><![CDATA[4sar for a shwarma. Delicious. Beef *(skip it) Chicken, (yep.) and Falafel for the vegetarians.]]></description>
				<Point>
					<coordinates>39.112208,22.286245,0.0</coordinates>
				</Point>
			</Placemark>
			<Placemark>
				<styleUrl>#icon-161</styleUrl>
				<name>Broast Chicken Carry-out</name>
				<ExtendedData>
				</ExtendedData>
				<description><![CDATA[Fried Chicken (BROAST) Get a 1/2 chicken plus french fries, garlic sauce and a few arabic breads for 11sar. Yes, you heard me...11sar, and it's to die for. Everything is fried fresh when you walk in.]]></description>
				<Point>
					<coordinates>39.112085,22.286292,0.0</coordinates>
				</Point>
			</Placemark>
			<Placemark>
				<styleUrl>#icon-97</styleUrl>
				<name>Electronic Store and Mobiles</name>
				<ExtendedData>
				</ExtendedData>
				<description><![CDATA[Memory sticks, cell phones, etc. Best selection and prices that I've found.]]></description>
				<Point>
					<coordinates>39.112736,22.287322,0.0</coordinates>
				</Point>
			</Placemark>
			<Placemark>
				<styleUrl>#icon-161</styleUrl>
				<name>Grocery Store</name>
				<ExtendedData>
				</ExtendedData>
				<description><![CDATA[Good prices on veggies (you pay the seller directly for veggies, everything else do at the checkout) also get your cleaning supplies, some office supplies, household stuff here. 

Try also their fresh baked bread.]]></description>
				<Point>
					<coordinates>39.11255700000001,22.286587,0.0</coordinates>
				</Point>
			</Placemark>
			<Placemark>
				<styleUrl>#icon-161</styleUrl>
				<name>Rotisserie Chicken Carry-out</name>
				<ExtendedData>
				</ExtendedData>
				<description><![CDATA[Rotisserie chicken. 22 sar for a whole chicken, rice and arabic bread.]]></description>
				<Point>
					<coordinates>39.113503,22.2869971,0.0</coordinates>
				</Point>
			</Placemark>
			<Placemark>
				<styleUrl>#icon-161</styleUrl>
				<name>Fish Auction</name>
				<ExtendedData>
				</ExtendedData>
				<Point>
					<coordinates>39.112777,22.287548,0.0</coordinates>
				</Point>
			</Placemark>
			<Placemark>
				<styleUrl>#icon-161</styleUrl>
				<name>Passport Photo Studio</name>
				<ExtendedData>
				</ExtendedData>
				<description><![CDATA[Get your passport photos here!]]></description>
				<Point>
					<coordinates>39.113265,22.286694,0.0</coordinates>
				</Point>
			</Placemark>
			<Placemark>
				<styleUrl>#icon-161</styleUrl>
				<name>Thuwal Coast Restaurant</name>
				<ExtendedData>
				</ExtendedData>
				<description><![CDATA[Very good sit down fish restaurant. Try the grilled homour with arabic rice.]]></description>
				<Point>
					<coordinates>36.782227,24.076559,0.0</coordinates>
				</Point>
			</Placemark>
			<Placemark>
				<styleUrl>#icon-161</styleUrl>
				<name>Corniche</name>
				<ExtendedData>
				</ExtendedData>
				<description><![CDATA[The corniche is now completed, and a really nice place to go for a stroll. Grab a pot of tea and shisha from one of the restaurants and watch the world go by.]]></description>
				<Point>
					<coordinates>36.44165,23.926013,0.0</coordinates>
				</Point>
			</Placemark>
			<Placemark>
				<styleUrl>#icon-161</styleUrl>
				<name>Beach</name>
				<ExtendedData>
				</ExtendedData>
				<description><![CDATA[Go for a stroll along the Thuwal Beach. There is a nice walkway and lots of places to have a picnic.]]></description>
				<Point>
					<coordinates>36.617432,24.20689,0.0</coordinates>
				</Point>
			</Placemark>
			<Placemark>
				<styleUrl>#icon-22</styleUrl>
				<name>Thuwal Post office</name>
				<ExtendedData>
				</ExtendedData>
				<Point>
					<coordinates>39.114834,22.289930000000002,0.0</coordinates>
				</Point>
			</Placemark>
			<Placemark>
				<styleUrl>#icon-22</styleUrl>
				<name>Photo Studio</name>
				<ExtendedData>
				</ExtendedData>
				<description><![CDATA[another one]]></description>
				<Point>
					<coordinates>39.112567,22.286853000000004,0.0</coordinates>
				</Point>
			</Placemark>
			<Placemark>
				<styleUrl>#icon-22</styleUrl>
				<name>Broast - Fried Chicken</name>
				<ExtendedData>
				</ExtendedData>
				<description><![CDATA[Really delicious Fried chicken and french-fries and cheap also. Worth trying and now buy it always]]></description>
				<Point>
					<coordinates>39.16626,22.786311,0.0</coordinates>
				</Point>
			</Placemark>
			<Placemark>
				<styleUrl>#icon-22</styleUrl>
				<name>Chicken and Rice</name>
				<ExtendedData>
				</ExtendedData>
				<description><![CDATA[One of the best grilled chicken in Thuwal and very nice rice.]]></description>
				<Point>
					<coordinates>38.62793,22.806567,0.0</coordinates>
				</Point>
			</Placemark>
			<Placemark>
				<styleUrl>#icon-22</styleUrl>
				<name>Yemeni Resturant</name>
				<ExtendedData>
				</ExtendedData>
				<Point>
					<coordinates>39.113758,22.287275,0.0</coordinates>
				</Point>
			</Placemark>
			<Placemark>
				<styleUrl>#icon-201</styleUrl>
				<name>ATM</name>
				<ExtendedData>
				</ExtendedData>
				<description><![CDATA[ATM Teller Machine]]></description>
				<Point>
					<coordinates>39.11474,22.289682,0.0</coordinates>
				</Point>
			</Placemark>
			<Placemark>
				<styleUrl>#icon-22</styleUrl>
				<name>Pakistani Restaurant </name>
				<ExtendedData>
				</ExtendedData>
				<description><![CDATA[Great fresh-baked naan.]]></description>
				<Point>
					<coordinates>39.114504,22.288223,0.0</coordinates>
				</Point>
			</Placemark>
			<Placemark>
				<styleUrl>#icon-22</styleUrl>
				<name>Brick Oven Pizza</name>
				<ExtendedData>
				</ExtendedData>
				<description><![CDATA[Brick Oven Pizza.  Pretty good.  Mine was undercooked, so make sure he leaves it in there on the stones for a bit.  Some black spots on the bottom and crust are good.  12 sar for a small, 23 for a large pie.  It's fast.  My small pie was in and out in 10 minutes.]]></description>
				<Point>
					<coordinates>39.105749,22.289652,0.0</coordinates>
				</Point>
			</Placemark>
			<Placemark>
				<styleUrl>#icon-125</styleUrl>
				<name>Shish tawook</name>
				<ExtendedData>
				</ExtendedData>
				<description><![CDATA[delicious shish tawook, 4SAR each]]></description>
				<Point>
					<coordinates>39.115719,22.291243,0.0</coordinates>
				</Point>
			</Placemark>
			<Placemark>
				<styleUrl>#icon-85</styleUrl>
				<name>Car mechanic</name>
				<ExtendedData>
				</ExtendedData>
				<Point>
					<coordinates>38.86413600000001,22.705255,0.0</coordinates>
				</Point>
			</Placemark>
			<Placemark>
				<styleUrl>#icon-53</styleUrl>
				<name>seafood</name>
				<ExtendedData>
				</ExtendedData>
				<description><![CDATA[Row of shops selling fresh seafood (not restaurants)]]></description>
				<Point>
					<coordinates>38.155518,22.603869,0.0</coordinates>
				</Point>
			</Placemark>
			<Placemark>
				<styleUrl>#icon-85</styleUrl>
				<name>Car wash</name>
				<ExtendedData>
				</ExtendedData>
				<description><![CDATA[SAR 20. They use high pressure hoses, cloth and lots of soap.]]></description>
				<Point>
					<coordinates>39.115708,22.287516,0.0</coordinates>
				</Point>
			</Placemark>
			<Placemark>
				<styleUrl>#icon-85</styleUrl>
				<name>auto parts</name>
				<ExtendedData>
				</ExtendedData>
				<Point>
					<coordinates>39.115824,22.287401,0.0</coordinates>
				</Point>
			</Placemark>
			<Placemark>
				<styleUrl>#icon-85</styleUrl>
				<name>mechanic</name>
				<ExtendedData>
				</ExtendedData>
				<description><![CDATA[also sells engine oil, filters etc]]></description>
				<Point>
					<coordinates>39.115866,22.292561,0.0</coordinates>
				</Point>
			</Placemark>
			<Placemark>
				<styleUrl>#icon-85</styleUrl>
				<name>hardware store</name>
				<ExtendedData>
				</ExtendedData>
				<Point>
					<coordinates>39.113753,22.290387,0.0</coordinates>
				</Point>
			</Placemark>
			<Placemark>
				<styleUrl>#icon-73</styleUrl>
				<name>Pharmacy</name>
				<ExtendedData>
				</ExtendedData>
				<Point>
					<coordinates>39.11319,22.287612000000003,0.0</coordinates>
				</Point>
			</Placemark>
			<Placemark>
				<styleUrl>#icon-125</styleUrl>
				<name>Chicken</name>
				<ExtendedData>
				</ExtendedData>
				<description><![CDATA[Grilled & rotisserie, comes with huge plate of rice and salad.]]></description>
				<Point>
					<coordinates>39.113206,22.287312,0.0</coordinates>
				</Point>
			</Placemark>
			<Placemark>
				<styleUrl>#icon-29</styleUrl>
				<name>Propane tanks</name>
				<ExtendedData>
				</ExtendedData>
				<Point>
					<coordinates>37.354749,22.876847,0.0</coordinates>
				</Point>
			</Placemark>
			<Placemark>
				<styleUrl>#icon-22</styleUrl>
				<name>Corniche</name>
				<ExtendedData>
				</ExtendedData>
				<description><![CDATA[The corniche is now completed, and a really nice place to go for a stroll. Grab a pot of tea and shisha from one of the restaurants and watch the world go by.]]></description>
				<Point>
					<coordinates>38.078613,23.099944,0.0</coordinates>
				</Point>
			</Placemark>
			<Placemark>
				<styleUrl>#icon-97</styleUrl>
				<name>Mobile Shop</name>
				<ExtendedData>
				</ExtendedData>
				<Point>
					<coordinates>39.13609,22.287151,0.0</coordinates>
				</Point>
			</Placemark>
			<Placemark>
				<styleUrl>#icon-125</styleUrl>
				<name>Istanbul Resturaunt</name>
				<ExtendedData>
				</ExtendedData>
				<Point>
					<coordinates>38.320313,22.786311,0.0</coordinates>
				</Point>
			</Placemark>
			<Placemark>
				<styleUrl>#icon-41</styleUrl>
				<name>Tahweel - Money Transfer </name>
				<ExtendedData>
				</ExtendedData>
				<description><![CDATA[Cheap Money Transfer (20 sar instead of 75 sar at samba) open in evenings/nights. Bring Iqama to setup account and get a card.]]></description>
				<Point>
					<coordinates>36.732788,22.978624,0.0</coordinates>
				</Point>
			</Placemark>
			<Placemark>
				<styleUrl>#icon-22</styleUrl>
				<name>Wahba Crater</name>
				<ExtendedData>
				</ExtendedData>
				<Point>
					<coordinates>41.13761900000001,22.900066,0.0</coordinates>
				</Point>
			</Placemark>
			<Placemark>
				<styleUrl>#icon-22</styleUrl>
				<name>Tahweel - Money Transfer </name>
				<ExtendedData>
				</ExtendedData>
				<description><![CDATA[Cheap Money Transfer (20 sar instead of 75 sar at samba) open in evenings/nights. Bring Iqama to setup account and get a card.]]></description>
				<Point>
					<coordinates>37.727051,23.180764,0.0</coordinates>
				</Point>
			</Placemark>
			<Placemark>
				<styleUrl>#icon-22</styleUrl>
				<name>Shwarma Carry-out</name>
				<ExtendedData>
				</ExtendedData>
				<description><![CDATA[4sar for a shwarma. Delicious. Beef *(skip it) Chicken, (yep.) and Falafel for the vegetarians.]]></description>
				<Point>
					<coordinates>39.112208,22.286245,0.0</coordinates>
				</Point>
			</Placemark>
			<Placemark>
				<styleUrl>#icon-22</styleUrl>
				<name>Tailor</name>
				<ExtendedData>
				</ExtendedData>
				<description><![CDATA[Tailor. Get your thobe!]]></description>
				<Point>
					<coordinates>39.112326,22.286188,0.0</coordinates>
				</Point>
			</Placemark>
		</Folder>
		<Style id='icon-125'>
			<IconStyle>
				<scale>1.1</scale>
				<Icon>
					<href>http://www.gstatic.com/mapspro/images/stock/503-wht-blank_maps.png</href>
				</Icon>
			</IconStyle>
		</Style>
		<Style id='icon-161'>
			<IconStyle>
				<scale>1.1</scale>
				<Icon>
					<href>http://www.gstatic.com/mapspro/images/stock/503-wht-blank_maps.png</href>
				</Icon>
			</IconStyle>
		</Style>
		<Style id='icon-201'>
			<IconStyle>
				<scale>1.1</scale>
				<Icon>
					<href>http://www.gstatic.com/mapspro/images/stock/503-wht-blank_maps.png</href>
				</Icon>
			</IconStyle>
		</Style>
		<Style id='icon-22'>
			<IconStyle>
				<scale>1.1</scale>
				<Icon>
					<href>http://www.gstatic.com/mapspro/images/stock/503-wht-blank_maps.png</href>
				</Icon>
			</IconStyle>
		</Style>
		<Style id='icon-29'>
			<IconStyle>
				<scale>1.1</scale>
				<Icon>
					<href>http://www.gstatic.com/mapspro/images/stock/503-wht-blank_maps.png</href>
				</Icon>
			</IconStyle>
		</Style>
		<Style id='icon-41'>
			<IconStyle>
				<scale>1.1</scale>
				<Icon>
					<href>http://www.gstatic.com/mapspro/images/stock/503-wht-blank_maps.png</href>
				</Icon>
			</IconStyle>
		</Style>
		<Style id='icon-53'>
			<IconStyle>
				<scale>1.1</scale>
				<Icon>
					<href>http://www.gstatic.com/mapspro/images/stock/503-wht-blank_maps.png</href>
				</Icon>
			</IconStyle>
		</Style>
		<Style id='icon-73'>
			<IconStyle>
				<scale>1.1</scale>
				<Icon>
					<href>http://www.gstatic.com/mapspro/images/stock/503-wht-blank_maps.png</href>
				</Icon>
			</IconStyle>
		</Style>
		<Style id='icon-85'>
			<IconStyle>
				<scale>1.1</scale>
				<Icon>
					<href>http://www.gstatic.com/mapspro/images/stock/503-wht-blank_maps.png</href>
				</Icon>
			</IconStyle>
		</Style>
		<Style id='icon-97'>
			<IconStyle>
				<scale>1.1</scale>
				<Icon>
					<href>http://www.gstatic.com/mapspro/images/stock/503-wht-blank_maps.png</href>
				</Icon>
			</IconStyle>
		</Style>
	</Document>
</kml>